[
 {
  "id": "osm-2428064301",
  "name": "Colle Gnifetti",
  "lat": 45.9297951,
  "lon": 7.8750435,
  "elevation": 4452,
  "surfaceLabel": "",
  "trafFeriale": 3,
  "trafWeekend": 5,
  "trucks": "rari",
  "snapped": false,
  "nodeId": 2428064301
 },
 {
  "id": "osm-5379031155",
  "name": "Colle Del Lys",
  "lat": 45.918945,
  "lon": 7.8605627,
  "elevation": 4255,
  "surfaceLabel": "",
  "trafFeriale": 3,
  "trafWeekend": 5,
  "trucks": "rari",
  "snapped": false,
  "nodeId": 5379031155
 },
 {
  "id": "osm-2304704016",
  "name": "Lisjoch",
  "lat": 45.9201886,
  "lon": 7.8532768,
  "elevation": 4152,
  "surfaceLabel": "",
  "trafFeriale": 3,
  "trafWeekend": 5,
  "trucks": "rari",
  "snapped": false,
  "nodeId": 2304704016
 },
 {
  "id": "osm-903282217",
  "name": "Passo del Naso",
  "lat": 45.9146583,
  "lon": 7.8350564,
  "elevation": 4130,
  "surfaceLabel": "",
  "trafFeriale": 3,
  "trafWeekend": 5,
  "trucks": "rari",
  "snapped": false,
  "nodeId": 903282217
 },
 {
  "id": "osm-503688746",
  "name": "Col Armand Charlet",
  "lat": 45.9342741,
  "lon": 6.9752079,
  "elevation": 3998,
  "surfaceLabel": "",
  "trafFeriale": 3,
  "trafWeekend": 5,
  "trucks": "rari",
  "snapped": false,
  "nodeId": 503688746
 },
 {
  "id": "osm-1725081202",
  "name": "Col des Grandes Murailles",
  "lat": 45.9637876,
  "lon": 7.6034663,
  "elevation": 3827,
  "surfaceLabel": "",
  "trafFeriale": 3,
  "trafWeekend": 5,
  "trucks": "rari",
  "snapped": false,
  "nodeId": 1725081202
 },
 {
  "id": "osm-503688740",
  "name": "Col de l&#39;Aiguille Verte",
  "lat": 45.9324338,
  "lon": 6.9804345,
  "elevation": 3796,
  "surfaceLabel": "",
  "trafFeriale": 3,
  "trafWeekend": 5,
  "trucks": "rari",
  "snapped": false,
  "nodeId": 503688740
 },
 {
  "id": "osm-1506070214",
  "name": "Colle Signal",
  "lat": 45.9258713,
  "lon": 7.8894603,
  "elevation": 3769,
  "surfaceLabel": "",
  "trafFeriale": 3,
  "trafWeekend": 5,
  "trucks": "rari",
  "snapped": false,
  "nodeId": 1506070214
 },
 {
  "id": "osm-91313900",
  "name": "Obere Glocknerscharte",
  "lat": 47.0742812,
  "lon": 12.6945093,
  "elevation": 3756,
  "surfaceLabel": "",
  "trafFeriale": 3,
  "trafWeekend": 5,
  "trucks": "rari",
  "enrichFailed": true,
  "snapped": false,
  "nodeId": 91313900
 },
 {
  "id": "osm-1458867995",
  "name": "Festi-Kin-Lücke",
  "lat": 46.0932423,
  "lon": 7.8419698,
  "elevation": 3734,
  "surfaceLabel": "",
  "trafFeriale": 3,
  "trafWeekend": 5,
  "trucks": "rari",
  "snapped": false,
  "nodeId": 1458867995
 },
 {
  "id": "osm-503688525",
  "name": "Col des Droites",
  "lat": 45.9300744,
  "lon": 6.9950574,
  "elevation": 3733,
  "surfaceLabel": "",
  "trafFeriale": 3,
  "trafWeekend": 5,
  "trucks": "rari",
  "snapped": false,
  "nodeId": 503688525
 },
 {
  "id": "osm-8591677607",
  "name": "Colle dei Cors",
  "lat": 45.9482489,
  "lon": 7.6005769,
  "elevation": 3714,
  "surfaceLabel": "",
  "trafFeriale": 3,
  "trafWeekend": 5,
  "trucks": "rari",
  "snapped": false,
  "nodeId": 8591677607
 },
 {
  "id": "osm-1372732823",
  "name": "Forcola d&#39;Argento",
  "lat": 46.3714409,
  "lon": 9.9204928,
  "elevation": 3706,
  "surfaceLabel": "",
  "trafFeriale": 3,
  "trafWeekend": 5,
  "trucks": "rari",
  "snapped": false,
  "nodeId": 1372732823
 },
 {
  "id": "osm-499575016",
  "name": "Fuorcla Bellavista",
  "lat": 46.3776235,
  "lon": 9.946005,
  "elevation": 3688,
  "surfaceLabel": "",
  "trafFeriale": 3,
  "trafWeekend": 5,
  "trucks": "rari",
  "snapped": false,
  "nodeId": 499575016
 },
 {
  "id": "osm-302332011",
  "name": "Obers Mönchsjoch",
  "lat": 46.5546722,
  "lon": 8.0067934,
  "elevation": 3624,
  "surfaceLabel": "",
  "trafFeriale": 3,
  "trafWeekend": 5,
  "trucks": "rari",
  "snapped": false,
  "nodeId": 302332011
 },
 {
  "id": "osm-1373112881",
  "name": "Col du Meitin",
  "lat": 45.9366063,
  "lon": 7.2816381,
  "elevation": 3610,
  "surfaceLabel": "",
  "trafFeriale": 3,
  "trafWeekend": 5,
  "trucks": "rari",
  "snapped": false,
  "nodeId": 1373112881
 },
 {
  "id": "osm-503688531",
  "name": "Col des Cristaux",
  "lat": 45.9233532,
  "lon": 7.0106946,
  "elevation": 3601,
  "surfaceLabel": "",
  "trafFeriale": 3,
  "trafWeekend": 5,
  "trucks": "rari",
  "snapped": false,
  "nodeId": 503688531
 },
 {
  "id": "osm-6711017736",
  "name": "Col de la Tête Blanche",
  "lat": 45.9909787,
  "lon": 7.5799971,
  "elevation": 3589,
  "surfaceLabel": "",
  "trafFeriale": 3,
  "trafWeekend": 5,
  "trucks": "rari",
  "snapped": false,
  "nodeId": 6711017736
 },
 {
  "id": "osm-876510181",
  "name": "Col du Lion",
  "lat": 45.9716869,
  "lon": 7.6448178,
  "elevation": 3579,
  "surfaceLabel": "",
  "trafFeriale": 3,
  "trafWeekend": 5,
  "trucks": "rari",
  "snapped": false,
  "nodeId": 876510181
 },
 {
  "id": "osm-1725081199",
  "name": "Col de Valpelline",
  "lat": 45.9857936,
  "lon": 7.5783132,
  "elevation": 3557,
  "surfaceLabel": "",
  "trafFeriale": 3,
  "trafWeekend": 5,
  "trucks": "rari",
  "snapped": false,
  "nodeId": 1725081199
 },
 {
  "id": "osm-475982778",
  "name": "Col de l&#39;Epée",
  "lat": 45.9545635,
  "lon": 7.2646194,
  "elevation": 3550,
  "surfaceLabel": "",
  "trafFeriale": 3,
  "trafWeekend": 5,
  "trucks": "rari",
  "snapped": false,
  "nodeId": 475982778
 },
 {
  "id": "osm-458867310",
  "name": "Col de la Serpentine",
  "lat": 45.991606,
  "lon": 7.4303181,
  "elevation": 3547,
  "surfaceLabel": "",
  "trafFeriale": 3,
  "trafWeekend": 5,
  "trucks": "rari",
  "snapped": false,
  "nodeId": 458867310
 },
 {
  "id": "osm-1725337196",
  "name": "Col du Tour Noir",
  "lat": 45.95594,
  "lon": 7.0353773,
  "elevation": 3534,
  "surfaceLabel": "",
  "trafFeriale": 3,
  "trafWeekend": 5,
  "trucks": "rari",
  "snapped": false,
  "nodeId": 1725337196
 },
 {
  "id": "osm-514472513",
  "name": "Oberes Bärenbartjoch",
  "lat": 46.799208,
  "lon": 10.7216958,
  "elevation": 3531,
  "surfaceLabel": "",
  "trafFeriale": 3,
  "trafWeekend": 5,
  "trucks": "rari",
  "snapped": false,
  "nodeId": 514472513
 },
 {
  "id": "osm-470375296",
  "name": "Col du Sonadon",
  "lat": 45.9287088,
  "lon": 7.2964156,
  "elevation": 3520,
  "surfaceLabel": "",
  "trafFeriale": 3,
  "trafWeekend": 5,
  "trucks": "rari",
  "snapped": false,
  "nodeId": 470375296
 },
 {
  "id": "osm-564379533",
  "name": "Passo del Sasso Rosso",
  "lat": 46.3631235,
  "lon": 9.9496456,
  "elevation": 3511,
  "surfaceLabel": "",
  "trafFeriale": 3,
  "trafWeekend": 5,
  "trucks": "rari",
  "snapped": false,
  "nodeId": 564379533
 },
 {
  "id": "osm-658836544",
  "name": "Gredetschjoch",
  "lat": 46.4127202,
  "lon": 7.9114395,
  "elevation": 3508,
  "surfaceLabel": "",
  "trafFeriale": 3,
  "trafWeekend": 5,
  "trucks": "rari",
  "snapped": false,
  "nodeId": 658836544
 },
 {
  "id": "osm-13381923322",
  "name": "Dammapass",
  "lat": 46.6383843,
  "lon": 8.4200184,
  "elevation": 3503,
  "surfaceLabel": "",
  "trafFeriale": 3,
  "trafWeekend": 5,
  "trucks": "rari",
  "snapped": false,
  "nodeId": 13381923322
 },
 {
  "id": "osm-565432843",
  "name": "Passo Rosole",
  "lat": 46.4357203,
  "lon": 10.6204967,
  "elevation": 3502,
  "surfaceLabel": "",
  "trafFeriale": 3,
  "trafWeekend": 5,
  "trucks": "rari",
  "snapped": false,
  "nodeId": 565432843
 },
 {
  "id": "osm-503688751",
  "name": "Brèche Sud du Cardinal",
  "lat": 45.9270543,
  "lon": 6.9655154,
  "elevation": 3497,
  "surfaceLabel": "",
  "trafFeriale": 3,
  "trafWeekend": 5,
  "trucks": "rari",
  "snapped": false,
  "nodeId": 503688751
 },
 {
  "id": "osm-2270748580",
  "name": "Colle della Nera",
  "lat": 45.5893973,
  "lon": 7.2713581,
  "elevation": 3487,
  "surfaceLabel": "",
  "trafFeriale": 3,
  "trafWeekend": 5,
  "trucks": "rari",
  "snapped": false,
  "nodeId": 2270748580
 },
 {
  "id": "osm-393192169",
  "name": "Col Durand",
  "lat": 46.0295628,
  "lon": 7.6400043,
  "elevation": 3474,
  "surfaceLabel": "",
  "trafFeriale": 3,
  "trafWeekend": 5,
  "trucks": "rari",
  "snapped": false,
  "nodeId": 393192169
 },
 {
  "id": "osm-1699505565",
  "name": "Passo",
  "lat": 45.9568844,
  "lon": 7.0464562,
  "elevation": 3470,
  "surfaceLabel": "",
  "trafFeriale": 3,
  "trafWeekend": 5,
  "trucks": "rari",
  "snapped": false,
  "nodeId": 1699505565
 },
 {
  "id": "osm-2570883422",
  "name": "Hintereisjoch",
  "lat": 46.790845,
  "lon": 10.7282943,
  "elevation": 3470,
  "surfaceLabel": "",
  "trafFeriale": 3,
  "trafWeekend": 5,
  "trucks": "rari",
  "snapped": false,
  "nodeId": 2570883422
 },
 {
  "id": "osm-910453927",
  "name": "Mitterkarjoch",
  "lat": 46.8848574,
  "lon": 10.8565273,
  "elevation": 3468,
  "surfaceLabel": "",
  "trafFeriale": 3,
  "trafWeekend": 5,
  "trucks": "rari",
  "snapped": false,
  "nodeId": 910453927
 },
 {
  "id": "osm-475982781",
  "name": "Col de Panossière",
  "lat": 45.9682433,
  "lon": 7.2718821,
  "elevation": 3459,
  "surfaceLabel": "",
  "trafFeriale": 3,
  "trafWeekend": 5,
  "trucks": "rari",
  "snapped": false,
  "nodeId": 475982781
 },
 {
  "id": "osm-6711004552",
  "name": "Col d&#39;Hérens",
  "lat": 45.9944958,
  "lon": 7.5860828,
  "elevation": 3458,
  "surfaceLabel": "",
  "trafFeriale": 3,
  "trafWeekend": 5,
  "trucks": "rari",
  "snapped": false,
  "nodeId": 6711004552
 },
 {
  "id": "osm-515636200",
  "name": "Östliches Marzelljoch",
  "lat": 46.7717494,
  "lon": 10.9122149,
  "elevation": 3450,
  "surfaceLabel": "",
  "trafFeriale": 3,
  "trafWeekend": 5,
  "trucks": "rari",
  "snapped": false,
  "nodeId": 515636200
 },
 {
  "id": "osm-1725337089",
  "name": "Col Copt",
  "lat": 45.9838049,
  "lon": 7.0391472,
  "elevation": 3436,
  "surfaceLabel": "",
  "trafFeriale": 3,
  "trafWeekend": 5,
  "trucks": "rari",
  "snapped": false,
  "nodeId": 1725337089
 },
 {
  "id": "osm-2476578343",
  "name": "Col des Roches",
  "lat": 45.5345368,
  "lon": 6.8551352,
  "elevation": 3435,
  "surfaceLabel": "",
  "trafFeriale": 3,
  "trafWeekend": 5,
  "trucks": "rari",
  "snapped": false,
  "nodeId": 2476578343
 },
 {
  "id": "osm-2844706823",
  "name": "Fuorcla Prievlusa",
  "lat": 46.3939731,
  "lon": 9.9068242,
  "elevation": 3430,
  "surfaceLabel": "",
  "trafFeriale": 3,
  "trafWeekend": 5,
  "trucks": "rari",
  "snapped": false,
  "nodeId": 2844706823
 },
 {
  "id": "osm-502448078",
  "name": "Rainertörl",
  "lat": 47.1029951,
  "lon": 12.3550041,
  "elevation": 3421,
  "surfaceLabel": "",
  "trafFeriale": 3,
  "trafWeekend": 5,
  "trucks": "rari",
  "snapped": false,
  "nodeId": 502448078
 },
 {
  "id": "osm-1725337134",
  "name": "Col de la Grande Lui",
  "lat": 45.9576389,
  "lon": 7.0504305,
  "elevation": 3419,
  "surfaceLabel": "",
  "trafFeriale": 3,
  "trafWeekend": 5,
  "trucks": "rari",
  "snapped": false,
  "nodeId": 1725337134
 },
 {
  "id": "osm-514315436",
  "name": "Brochkogeljoch",
  "lat": 46.8865128,
  "lon": 10.8414078,
  "elevation": 3414,
  "surfaceLabel": "",
  "trafFeriale": 3,
  "trafWeekend": 5,
  "trucks": "rari",
  "snapped": false,
  "nodeId": 514315436
 },
 {
  "id": "osm-1373115114",
  "name": "Fenêtre du Tour",
  "lat": 45.9748705,
  "lon": 7.0147813,
  "elevation": 3414,
  "surfaceLabel": "",
  "trafFeriale": 3,
  "trafWeekend": 5,
  "trucks": "rari",
  "snapped": false,
  "nodeId": 1373115114
 },
 {
  "id": "osm-529691591",
  "name": "Colle Cadini",
  "lat": 46.3793084,
  "lon": 10.604089,
  "elevation": 3409,
  "surfaceLabel": "",
  "trafFeriale": 3,
  "trafWeekend": 5,
  "trucks": "rari",
  "snapped": false,
  "nodeId": 529691591
 },
 {
  "id": "osm-2446766751",
  "name": "Sella d&#39;Albaron",
  "lat": 45.3279497,
  "lon": 7.1090277,
  "elevation": 3409,
  "surfaceLabel": "",
  "trafFeriale": 3,
  "trafWeekend": 5,
  "trucks": "rari",
  "snapped": false,
  "nodeId": 2446766751
 },
 {
  "id": "osm-564938421",
  "name": "Suldenjoch - Passo di Solda",
  "lat": 46.4845677,
  "lon": 10.557902,
  "elevation": 3405,
  "surfaceLabel": "",
  "trafFeriale": 3,
  "trafWeekend": 5,
  "trucks": "rari",
  "snapped": false,
  "nodeId": 564938421
 },
 {
  "id": "osm-565432824",
  "name": "Passo della Vedretta Rossa",
  "lat": 46.4104346,
  "lon": 10.6238751,
  "elevation": 3403,
  "surfaceLabel": "",
  "trafFeriale": 3,
  "trafWeekend": 5,
  "trucks": "rari",
  "snapped": false,
  "nodeId": 565432824
 },
 {
  "id": "osm-515635107",
  "name": "Hinteres Schwärzenjoch",
  "lat": 46.7778972,
  "lon": 10.9178034,
  "elevation": 3393,
  "surfaceLabel": "",
  "trafFeriale": 3,
  "trafWeekend": 5,
  "trucks": "rari",
  "snapped": false,
  "nodeId": 515635107
 },
 {
  "id": "osm-1372732008",
  "name": "Forcola Alta",
  "lat": 46.3611172,
  "lon": 9.8343177,
  "elevation": 3390,
  "surfaceLabel": "",
  "trafFeriale": 3,
  "trafWeekend": 5,
  "trucks": "rari",
  "snapped": false,
  "nodeId": 1372732008
 },
 {
  "id": "osm-1725337123",
  "name": "Col de Saleina",
  "lat": 45.9582286,
  "lon": 7.0551777,
  "elevation": 3390,
  "surfaceLabel": "",
  "trafFeriale": 3,
  "trafWeekend": 5,
  "trucks": "rari",
  "snapped": false,
  "nodeId": 1725337123
 },
 {
  "id": "osm-564376650",
  "name": "Sella di Pioda",
  "lat": 46.2717369,
  "lon": 9.7422809,
  "elevation": 3387,
  "surfaceLabel": "",
  "trafFeriale": 3,
  "trafWeekend": 5,
  "trucks": "rari",
  "snapped": false,
  "nodeId": 564376650
 },
 {
  "id": "osm-5636202356",
  "name": "Passo",
  "lat": 45.9594944,
  "lon": 7.4293639,
  "elevation": 3387,
  "surfaceLabel": "",
  "trafFeriale": 3,
  "trafWeekend": 5,
  "trucks": "rari",
  "snapped": false,
  "nodeId": 5636202356
 },
 {
  "id": "osm-3319309236",
  "name": "Passo",
  "lat": 45.4325212,
  "lon": 7.1053734,
  "elevation": 3386,
  "surfaceLabel": "",
  "trafFeriale": 3,
  "trafWeekend": 5,
  "trucks": "rari",
  "snapped": false,
  "nodeId": 3319309236
 },
 {
  "id": "osm-3174913502",
  "name": "Col de l&#39;Evêque",
  "lat": 45.9593533,
  "lon": 7.4958861,
  "elevation": 3382,
  "surfaceLabel": "",
  "trafFeriale": 3,
  "trafWeekend": 5,
  "trucks": "rari",
  "snapped": false,
  "nodeId": 3174913502
 },
 {
  "id": "osm-558976086",
  "name": "Bächilicke",
  "lat": 46.5106922,
  "lon": 8.1848559,
  "elevation": 3378,
  "surfaceLabel": "",
  "trafFeriale": 3,
  "trafWeekend": 5,
  "trucks": "rari",
  "snapped": false,
  "nodeId": 558976086
 },
 {
  "id": "osm-564938420",
  "name": "Passo di Campo",
  "lat": 46.4956105,
  "lon": 10.4861918,
  "elevation": 3376,
  "surfaceLabel": "",
  "trafFeriale": 3,
  "trafWeekend": 5,
  "trucks": "rari",
  "snapped": false,
  "nodeId": 564938420
 },
 {
  "id": "osm-2823357294",
  "name": "Sella Freshfield",
  "lat": 46.219266,
  "lon": 10.6520079,
  "elevation": 3376,
  "surfaceLabel": "",
  "trafFeriale": 3,
  "trafWeekend": 5,
  "trucks": "rari",
  "snapped": false,
  "nodeId": 2823357294
 },
 {
  "id": "osm-3012047265",
  "name": "Col du Capucin",
  "lat": 45.8933867,
  "lon": 7.2631648,
  "elevation": 3376,
  "surfaceLabel": "",
  "trafFeriale": 3,
  "trafWeekend": 5,
  "trucks": "rari",
  "snapped": false,
  "nodeId": 3012047265
 },
 {
  "id": "osm-321172804",
  "name": "Passo",
  "lat": 46.7738216,
  "lon": 10.8251621,
  "elevation": 3375,
  "surfaceLabel": "",
  "trafFeriale": 3,
  "trafWeekend": 5,
  "trucks": "rari",
  "snapped": false,
  "nodeId": 321172804
 },
 {
  "id": "osm-452522308",
  "name": "Col Pale Rosse",
  "lat": 46.4752435,
  "lon": 10.5639322,
  "elevation": 3375,
  "surfaceLabel": "",
  "trafFeriale": 3,
  "trafWeekend": 5,
  "trucks": "rari",
  "snapped": false,
  "nodeId": 452522308
 },
 {
  "id": "osm-515093380",
  "name": "Schalfkogeljoch",
  "lat": 46.7977573,
  "lon": 10.9612036,
  "elevation": 3375,
  "surfaceLabel": "",
  "trafFeriale": 3,
  "trafWeekend": 5,
  "trucks": "rari",
  "snapped": false,
  "nodeId": 515093380
 },
 {
  "id": "osm-564938415",
  "name": "Passo degli Spiriti",
  "lat": 46.4941993,
  "lon": 10.4824167,
  "elevation": 3373,
  "surfaceLabel": "",
  "trafFeriale": 3,
  "trafWeekend": 5,
  "trucks": "rari",
  "snapped": false,
  "nodeId": 564938415
 },
 {
  "id": "osm-2758091338",
  "name": "Colle del Rutor",
  "lat": 45.6344056,
  "lon": 7.0196711,
  "elevation": 3373,
  "surfaceLabel": "",
  "trafFeriale": 3,
  "trafWeekend": 5,
  "trucks": "rari",
  "snapped": false,
  "nodeId": 2758091338
 },
 {
  "id": "osm-8899266352",
  "name": "Westliche Möselescharte",
  "lat": 46.9896194,
  "lon": 11.7810211,
  "elevation": 3370,
  "surfaceLabel": "",
  "trafFeriale": 3,
  "trafWeekend": 5,
  "trucks": "rari",
  "snapped": false,
  "nodeId": 8899266352
 },
 {
  "id": "osm-515174444",
  "name": "Roßbergjoch",
  "lat": 46.7751586,
  "lon": 10.923247,
  "elevation": 3366,
  "surfaceLabel": "",
  "trafFeriale": 3,
  "trafWeekend": 5,
  "trucks": "rari",
  "snapped": false,
  "nodeId": 515174444
 },
 {
  "id": "osm-452507212",
  "name": "Colle delle Miniere",
  "lat": 46.4795961,
  "lon": 10.5556565,
  "elevation": 3362,
  "surfaceLabel": "",
  "trafFeriale": 3,
  "trafWeekend": 5,
  "trucks": "rari",
  "snapped": false,
  "nodeId": 452507212
 },
 {
  "id": "osm-514455979",
  "name": "Weißkugeljoch - Forcella di Palla Bianca",
  "lat": 46.7990248,
  "lon": 10.7343424,
  "elevation": 3362,
  "surfaceLabel": "",
  "trafFeriale": 3,
  "trafWeekend": 5,
  "trucks": "rari",
  "snapped": false,
  "nodeId": 514455979
 },
 {
  "id": "osm-496502602",
  "name": "Passo degli Italiani",
  "lat": 46.1608826,
  "lon": 10.5149794,
  "elevation": 3350,
  "surfaceLabel": "",
  "trafFeriale": 3,
  "trafWeekend": 5,
  "trucks": "rari",
  "snapped": false,
  "nodeId": 496502602
 },
 {
  "id": "osm-857445664",
  "name": "Col de la Bérangère",
  "lat": 45.8053437,
  "lon": 6.7822325,
  "elevation": 3348,
  "surfaceLabel": "",
  "trafFeriale": 3,
  "trafWeekend": 5,
  "trucks": "rari",
  "snapped": false,
  "nodeId": 857445664
 },
 {
  "id": "osm-1373115715",
  "name": "Col des Bouquetins",
  "lat": 45.9859369,
  "lon": 7.5589807,
  "elevation": 3348,
  "surfaceLabel": "",
  "trafFeriale": 3,
  "trafWeekend": 5,
  "trucks": "rari",
  "snapped": false,
  "nodeId": 1373115715
 },
 {
  "id": "osm-10162701898",
  "name": "Breithornpass",
  "lat": 46.2425491,
  "lon": 8.086446,
  "elevation": 3345,
  "surfaceLabel": "",
  "trafFeriale": 3,
  "trafWeekend": 5,
  "trucks": "rari",
  "snapped": false,
  "nodeId": 10162701898
 },
 {
  "id": "osm-564938418",
  "name": "Tuckettjoch - Passo di Tuckett",
  "lat": 46.4981141,
  "lon": 10.4918582,
  "elevation": 3344,
  "surfaceLabel": "",
  "trafFeriale": 3,
  "trafWeekend": 5,
  "trucks": "rari",
  "snapped": false,
  "nodeId": 564938418
 },
 {
  "id": "osm-647369947",
  "name": "Schöllijoch",
  "lat": 46.1445307,
  "lon": 7.7336031,
  "elevation": 3343,
  "surfaceLabel": "",
  "trafFeriale": 3,
  "trafWeekend": 5,
  "trucks": "rari",
  "snapped": false,
  "nodeId": 647369947
 },
 {
  "id": "osm-514315437",
  "name": "Taschachhochjoch",
  "lat": 46.890878,
  "lon": 10.8331871,
  "elevation": 3340,
  "surfaceLabel": "",
  "trafFeriale": 3,
  "trafWeekend": 5,
  "trucks": "rari",
  "snapped": false,
  "nodeId": 514315437
 },
 {
  "id": "osm-565219609",
  "name": "Passo di Monte Fumo",
  "lat": 46.1451378,
  "lon": 10.5469649,
  "elevation": 3339,
  "surfaceLabel": "",
  "trafFeriale": 3,
  "trafWeekend": 5,
  "trucks": "rari",
  "snapped": false,
  "nodeId": 565219609
 },
 {
  "id": "osm-908835319",
  "name": "Angelusscharte - Passo dell&#39;Angelo",
  "lat": 46.5416446,
  "lon": 10.6439511,
  "elevation": 3337,
  "surfaceLabel": "",
  "trafFeriale": 3,
  "trafWeekend": 5,
  "trucks": "rari",
  "snapped": false,
  "nodeId": 908835319
 },
 {
  "id": "osm-538384278",
  "name": "Gemschlicke",
  "lat": 46.5203427,
  "lon": 8.1437074,
  "elevation": 3335,
  "surfaceLabel": "",
  "trafFeriale": 3,
  "trafWeekend": 5,
  "trucks": "rari",
  "snapped": false,
  "nodeId": 538384278
 },
 {
  "id": "osm-2119339858",
  "name": "Colle delle Locce",
  "lat": 45.9230697,
  "lon": 7.9134664,
  "elevation": 3334,
  "surfaceLabel": "",
  "trafFeriale": 3,
  "trafWeekend": 5,
  "trucks": "rari",
  "snapped": false,
  "nodeId": 2119339858
 },
 {
  "id": "osm-10800074535",
  "name": "Col du Moine",
  "lat": 45.2912654,
  "lon": 6.7391433,
  "elevation": 3334,
  "surfaceLabel": "",
  "trafFeriale": 3,
  "trafWeekend": 5,
  "trucks": "rari",
  "snapped": false,
  "nodeId": 10800074535
 },
 {
  "id": "osm-529691615",
  "name": "Colle Vioz",
  "lat": 46.3952013,
  "lon": 10.6214343,
  "elevation": 3330,
  "surfaceLabel": "",
  "trafFeriale": 3,
  "trafWeekend": 5,
  "trucks": "rari",
  "snapped": false,
  "nodeId": 529691615
 },
 {
  "id": "osm-564938413",
  "name": "Passo di Sasso Rotondo",
  "lat": 46.4947036,
  "lon": 10.4719534,
  "elevation": 3326,
  "surfaceLabel": "",
  "trafFeriale": 3,
  "trafWeekend": 5,
  "trucks": "rari",
  "snapped": false,
  "nodeId": 564938413
 },
 {
  "id": "osm-3536754393",
  "name": "Col du Mont Rouge",
  "lat": 45.9760589,
  "lon": 7.3886708,
  "elevation": 3326,
  "surfaceLabel": "",
  "trafFeriale": 3,
  "trafWeekend": 5,
  "trucks": "rari",
  "snapped": false,
  "nodeId": 3536754393
 },
 {
  "id": "osm-1736350715",
  "name": "Col de Labby",
  "lat": 45.2942056,
  "lon": 6.7362053,
  "elevation": 3324,
  "surfaceLabel": "",
  "trafFeriale": 3,
  "trafWeekend": 5,
  "trucks": "rari",
  "snapped": false,
  "nodeId": 1736350715
 },
 {
  "id": "osm-3174627435",
  "name": "Col du Chardonnet",
  "lat": 45.9662003,
  "lon": 7.0116443,
  "elevation": 3321,
  "surfaceLabel": "",
  "trafFeriale": 3,
  "trafWeekend": 5,
  "trucks": "rari",
  "snapped": false,
  "nodeId": 3174627435
 },
 {
  "id": "osm-564938417",
  "name": "Trafoier Joch - Passo di Trafoi",
  "lat": 46.4969551,
  "lon": 10.4978097,
  "elevation": 3315,
  "surfaceLabel": "",
  "trafFeriale": 3,
  "trafWeekend": 5,
  "trucks": "rari",
  "snapped": false,
  "nodeId": 564938417
 },
 {
  "id": "osm-1725081201",
  "name": "Col de la Division",
  "lat": 45.9766251,
  "lon": 7.5659435,
  "elevation": 3314,
  "surfaceLabel": "",
  "trafFeriale": 3,
  "trafWeekend": 5,
  "trucks": "rari",
  "snapped": false,
  "nodeId": 1725081201
 },
 {
  "id": "osm-514370022",
  "name": "Unteres Guslarjoch",
  "lat": 46.8501834,
  "lon": 10.7939825,
  "elevation": 3312,
  "surfaceLabel": "",
  "trafFeriale": 3,
  "trafWeekend": 5,
  "trucks": "rari",
  "snapped": false,
  "nodeId": 514370022
 },
 {
  "id": "osm-565219427",
  "name": "Passo degli Inglesi",
  "lat": 46.1595922,
  "lon": 10.5108567,
  "elevation": 3311,
  "surfaceLabel": "",
  "trafFeriale": 3,
  "trafWeekend": 5,
  "trucks": "rari",
  "snapped": false,
  "nodeId": 565219427
 },
 {
  "id": "osm-1241260531",
  "name": "Col des Nantillons",
  "lat": 45.9007755,
  "lon": 6.9177397,
  "elevation": 3310,
  "surfaceLabel": "",
  "trafFeriale": 3,
  "trafWeekend": 5,
  "trucks": "rari",
  "snapped": false,
  "nodeId": 1241260531
 },
 {
  "id": "osm-2408968621",
  "name": "Colle della Tersiva",
  "lat": 45.6229686,
  "lon": 7.474397,
  "elevation": 3310,
  "surfaceLabel": "",
  "trafFeriale": 3,
  "trafWeekend": 5,
  "trucks": "rari",
  "snapped": false,
  "nodeId": 2408968621
 },
 {
  "id": "osm-669936518",
  "name": "Forcola Malenco",
  "lat": 46.3500266,
  "lon": 9.8278863,
  "elevation": 3309,
  "surfaceLabel": "",
  "trafFeriale": 3,
  "trafWeekend": 5,
  "trucks": "rari",
  "snapped": false,
  "nodeId": 669936518
 },
 {
  "id": "osm-483087131",
  "name": "Colle di Teleccio",
  "lat": 45.524784,
  "lon": 7.3631968,
  "elevation": 3304,
  "surfaceLabel": "",
  "trafFeriale": 3,
  "trafWeekend": 5,
  "trucks": "rari",
  "snapped": false,
  "nodeId": 483087131
 },
 {
  "id": "osm-529691576",
  "name": "Colle degli Orsi",
  "lat": 46.3773391,
  "lon": 10.5892455,
  "elevation": 3301,
  "surfaceLabel": "",
  "trafFeriale": 3,
  "trafWeekend": 5,
  "trucks": "rari",
  "snapped": false,
  "nodeId": 529691576
 },
 {
  "id": "osm-321174741",
  "name": "Sexegertenjoch",
  "lat": 46.8850093,
  "lon": 10.8020993,
  "elevation": 3300,
  "surfaceLabel": "",
  "trafFeriale": 3,
  "trafWeekend": 5,
  "trucks": "rari",
  "snapped": false,
  "nodeId": 321174741
 },
 {
  "id": "osm-734218402",
  "name": "Col du Lauson",
  "lat": 45.5777005,
  "lon": 7.2690802,
  "elevation": 3299,
  "surfaceLabel": "",
  "trafFeriale": 3,
  "trafWeekend": 5,
  "trucks": "rari",
  "snapped": false,
  "nodeId": 734218402
 },
 {
  "id": "osm-3006451802",
  "name": "Sonklarscharte - Forcella di Malavalle",
  "lat": 46.9598901,
  "lon": 11.1639301,
  "elevation": 3298,
  "surfaceLabel": "",
  "trafFeriale": 3,
  "trafWeekend": 5,
  "trucks": "rari",
  "snapped": false,
  "nodeId": 3006451802
 },
 {
  "id": "osm-3444480468",
  "name": "Theodulpass",
  "lat": 45.9436927,
  "lon": 7.7084091,
  "elevation": 3295,
  "surfaceLabel": "&#x1FAA8; Sterrato/gravel",
  "trafFeriale": 1,
  "trafWeekend": 3,
  "trucks": "no",
  "snapped": true,
  "nodeId": 3444480468
 },
 {
  "id": "osm-1725337177",
  "name": "Col des Plines",
  "lat": 45.9879783,
  "lon": 7.0450366,
  "elevation": 3294,
  "surfaceLabel": "",
  "trafFeriale": 3,
  "trafWeekend": 5,
  "trucks": "rari",
  "snapped": false,
  "nodeId": 1725337177
 },
 {
  "id": "osm-5636202359",
  "name": "Col du Petit Mont Collon",
  "lat": 45.9607222,
  "lon": 7.4854389,
  "elevation": 3294,
  "surfaceLabel": "",
  "trafFeriale": 3,
  "trafWeekend": 5,
  "trucks": "rari",
  "snapped": false,
  "nodeId": 5636202359
 },
 {
  "id": "osm-558973640",
  "name": "Galmilicke",
  "lat": 46.5161102,
  "lon": 8.1888633,
  "elevation": 3293,
  "surfaceLabel": "",
  "trafFeriale": 3,
  "trafWeekend": 5,
  "trucks": "rari",
  "snapped": false,
  "nodeId": 558973640
 },
 {
  "id": "osm-514472515",
  "name": "Bärenbartjoch",
  "lat": 46.8003281,
  "lon": 10.7102607,
  "elevation": 3292,
  "surfaceLabel": "",
  "trafFeriale": 3,
  "trafWeekend": 5,
  "trucks": "rari",
  "snapped": false,
  "nodeId": 514472515
 },
 {
  "id": "osm-1930395393",
  "name": "Adulajoch",
  "lat": 46.4954003,
  "lon": 9.038574,
  "elevation": 3290,
  "surfaceLabel": "",
  "trafFeriale": 3,
  "trafWeekend": 5,
  "trucks": "rari",
  "snapped": false,
  "nodeId": 1930395393
 },
 {
  "id": "osm-1725337096",
  "name": "Col Supérieur du Tour",
  "lat": 45.9885724,
  "lon": 7.0117059,
  "elevation": 3288,
  "surfaceLabel": "",
  "trafFeriale": 3,
  "trafWeekend": 5,
  "trucks": "rari",
  "snapped": false,
  "nodeId": 1725337096
 },
 {
  "id": "osm-1393267837",
  "name": "Firmisanjoch",
  "lat": 46.8110378,
  "lon": 10.96111,
  "elevation": 3285,
  "surfaceLabel": "",
  "trafFeriale": 3,
  "trafWeekend": 5,
  "trucks": "rari",
  "snapped": false,
  "nodeId": 1393267837
 },
 {
  "id": "osm-516060042",
  "name": "Valvellücke",
  "lat": 46.7720761,
  "lon": 10.6708595,
  "elevation": 3284,
  "surfaceLabel": "",
  "trafFeriale": 3,
  "trafWeekend": 5,
  "trucks": "rari",
  "snapped": false,
  "nodeId": 516060042
 },
 {
  "id": "osm-1942442218",
  "name": "Pas du Chapeau",
  "lat": 45.2516398,
  "lon": 6.9969678,
  "elevation": 3283,
  "surfaceLabel": "",
  "trafFeriale": 3,
  "trafWeekend": 5,
  "trucks": "rari",
  "snapped": false,
  "nodeId": 1942442218
 },
 {
  "id": "osm-7165008486",
  "name": "Col du Tour",
  "lat": 45.9858214,
  "lon": 7.0166227,
  "elevation": 3281,
  "surfaceLabel": "",
  "trafFeriale": 3,
  "trafWeekend": 5,
  "trucks": "rari",
  "snapped": false,
  "nodeId": 7165008486
 },
 {
  "id": "osm-526986004",
  "name": "Grünhornlücke",
  "lat": 46.5135267,
  "lon": 8.0835697,
  "elevation": 3280,
  "surfaceLabel": "",
  "trafFeriale": 3,
  "trafWeekend": 5,
  "trucks": "rari",
  "snapped": false,
  "nodeId": 526986004
 },
 {
  "id": "osm-427686936",
  "name": "Hauslabjoch",
  "lat": 46.7814761,
  "lon": 10.8402643,
  "elevation": 3279,
  "surfaceLabel": "",
  "trafFeriale": 3,
  "trafWeekend": 5,
  "trucks": "rari",
  "snapped": false,
  "nodeId": 427686936
 },
 {
  "id": "osm-512004605",
  "name": "Passo",
  "lat": 47.0026467,
  "lon": 10.9086379,
  "elevation": 3278,
  "surfaceLabel": "",
  "trafFeriale": 3,
  "trafWeekend": 5,
  "trucks": "rari",
  "snapped": false,
  "nodeId": 512004605
 },
 {
  "id": "osm-515155668",
  "name": "Passo",
  "lat": 46.8604611,
  "lon": 10.9736329,
  "elevation": 3275,
  "surfaceLabel": "",
  "trafFeriale": 3,
  "trafWeekend": 5,
  "trucks": "rari",
  "snapped": false,
  "nodeId": 515155668
 },
 {
  "id": "osm-3307783749",
  "name": "Nördliches Neederseitenjoch",
  "lat": 46.856574,
  "lon": 10.9728129,
  "elevation": 3274,
  "surfaceLabel": "",
  "trafFeriale": 3,
  "trafWeekend": 5,
  "trucks": "rari",
  "snapped": false,
  "nodeId": 3307783749
 },
 {
  "id": "osm-479094155",
  "name": "Zwischbergenpass",
  "lat": 46.1148034,
  "lon": 8.0201931,
  "elevation": 3271,
  "surfaceLabel": "",
  "trafFeriale": 3,
  "trafWeekend": 5,
  "trucks": "rari",
  "snapped": false,
  "nodeId": 479094155
 },
 {
  "id": "osm-514511401",
  "name": "Quelljoch - Passo della Sorgente",
  "lat": 46.7807976,
  "lon": 10.7305704,
  "elevation": 3270,
  "surfaceLabel": "",
  "trafFeriale": 3,
  "trafWeekend": 5,
  "trucks": "rari",
  "snapped": false,
  "nodeId": 514511401
 },
 {
  "id": "osm-515133157",
  "name": "Südliches Neederseitenjoch",
  "lat": 46.8549845,
  "lon": 10.9745485,
  "elevation": 3270,
  "surfaceLabel": "",
  "trafFeriale": 3,
  "trafWeekend": 5,
  "trucks": "rari",
  "snapped": false,
  "nodeId": 515133157
 },
 {
  "id": "osm-1975493084",
  "name": "Längfluejoch",
  "lat": 46.0160893,
  "lon": 7.8501357,
  "elevation": 3265,
  "surfaceLabel": "",
  "trafFeriale": 3,
  "trafWeekend": 5,
  "trucks": "rari",
  "snapped": false,
  "nodeId": 1975493084
 },
 {
  "id": "osm-309757023",
  "name": "Fenêtre de Saleina",
  "lat": 45.9830614,
  "lon": 7.0255637,
  "elevation": 3261,
  "surfaceLabel": "",
  "trafFeriale": 3,
  "trafWeekend": 5,
  "trucks": "rari",
  "snapped": false,
  "nodeId": 309757023
 },
 {
  "id": "osm-4680784664",
  "name": "Passo dal Cantun",
  "lat": 46.3070141,
  "lon": 9.6782842,
  "elevation": 3261,
  "surfaceLabel": "",
  "trafFeriale": 3,
  "trafWeekend": 5,
  "trucks": "rari",
  "snapped": false,
  "nodeId": 4680784664
 },
 {
  "id": "osm-514511404",
  "name": "Steinschlagjoch - Bocchetta delle Frane",
  "lat": 46.7869231,
  "lon": 10.7403369,
  "elevation": 3257,
  "surfaceLabel": "",
  "trafFeriale": 3,
  "trafWeekend": 5,
  "trucks": "rari",
  "snapped": false,
  "nodeId": 514511404
 },
 {
  "id": "osm-476029779",
  "name": "Langenfernerjoch - Passo del Cevedale",
  "lat": 46.4626695,
  "lon": 10.6023248,
  "elevation": 3256,
  "surfaceLabel": "",
  "trafFeriale": 3,
  "trafWeekend": 5,
  "trucks": "rari",
  "snapped": false,
  "nodeId": 476029779
 },
 {
  "id": "osm-2270748571",
  "name": "Colle del Tuf",
  "lat": 45.572146,
  "lon": 7.2750685,
  "elevation": 3255,
  "surfaceLabel": "",
  "trafFeriale": 3,
  "trafWeekend": 5,
  "trucks": "rari",
  "snapped": false,
  "nodeId": 2270748571
 },
 {
  "id": "osm-1372732457",
  "name": "Fuorcla da la Sella",
  "lat": 46.3650962,
  "lon": 9.8732732,
  "elevation": 3253,
  "surfaceLabel": "",
  "trafFeriale": 3,
  "trafWeekend": 5,
  "trucks": "rari",
  "snapped": false,
  "nodeId": 1372732457
 },
 {
  "id": "osm-5152599346",
  "name": "Passo",
  "lat": 46.1638148,
  "lon": 7.7385069,
  "elevation": 3252,
  "surfaceLabel": "",
  "trafFeriale": 3,
  "trafWeekend": 5,
  "trucks": "rari",
  "snapped": false,
  "nodeId": 5152599346
 },
 {
  "id": "osm-516012329",
  "name": "Oberettesjoch - Forcella di Oberettes",
  "lat": 46.7767545,
  "lon": 10.7311537,
  "elevation": 3251,
  "surfaceLabel": "",
  "trafFeriale": 3,
  "trafWeekend": 5,
  "trucks": "rari",
  "snapped": false,
  "nodeId": 516012329
 },
 {
  "id": "osm-565432696",
  "name": "Passo della Croce",
  "lat": 46.1590621,
  "lon": 10.5571993,
  "elevation": 3251,
  "surfaceLabel": "",
  "trafFeriale": 3,
  "trafWeekend": 5,
  "trucks": "rari",
  "snapped": false,
  "nodeId": 565432696
 },
 {
  "id": "osm-645606078",
  "name": "Col de Tracuit",
  "lat": 46.1307995,
  "lon": 7.6782515,
  "elevation": 3250,
  "surfaceLabel": "",
  "trafFeriale": 3,
  "trafWeekend": 5,
  "trucks": "rari",
  "snapped": false,
  "nodeId": 645606078
 },
 {
  "id": "osm-2371235293",
  "name": "Passo di Làres",
  "lat": 46.1458908,
  "lon": 10.5907876,
  "elevation": 3250,
  "surfaceLabel": "",
  "trafFeriale": 3,
  "trafWeekend": 5,
  "trucks": "rari",
  "snapped": false,
  "nodeId": 2371235293
 },
 {
  "id": "osm-514428100",
  "name": "Brandenburger Jöchl",
  "lat": 46.84372,
  "lon": 10.7994134,
  "elevation": 3248,
  "surfaceLabel": "",
  "trafFeriale": 3,
  "trafWeekend": 5,
  "trucks": "rari",
  "snapped": false,
  "nodeId": 514428100
 },
 {
  "id": "osm-3377701376",
  "name": "Obere Bielenlücke",
  "lat": 46.6082862,
  "lon": 8.4223844,
  "elevation": 3248,
  "surfaceLabel": "",
  "trafFeriale": 3,
  "trafWeekend": 5,
  "trucks": "rari",
  "snapped": false,
  "nodeId": 3377701376
 },
 {
  "id": "osm-485663766",
  "name": "Zwischbergenpass S",
  "lat": 46.1133415,
  "lon": 8.0220681,
  "elevation": 3242,
  "surfaceLabel": "",
  "trafFeriale": 3,
  "trafWeekend": 5,
  "trucks": "rari",
  "snapped": false,
  "nodeId": 485663766
 },
 {
  "id": "osm-1503713185",
  "name": "Passo dei Tre Cappuccini",
  "lat": 45.6742736,
  "lon": 7.3861137,
  "elevation": 3242,
  "surfaceLabel": "",
  "trafFeriale": 3,
  "trafWeekend": 5,
  "trucks": "rari",
  "snapped": false,
  "nodeId": 1503713185
 },
 {
  "id": "osm-514351194",
  "name": "Gepatschjoch",
  "lat": 46.8645436,
  "lon": 10.7937368,
  "elevation": 3241,
  "surfaceLabel": "",
  "trafFeriale": 3,
  "trafWeekend": 5,
  "trucks": "rari",
  "snapped": false,
  "nodeId": 514351194
 },
 {
  "id": "osm-333900159",
  "name": "Östliche Möselescharte",
  "lat": 46.9904069,
  "lon": 11.7932308,
  "elevation": 3240,
  "surfaceLabel": "",
  "trafFeriale": 3,
  "trafWeekend": 5,
  "trucks": "rari",
  "snapped": false,
  "nodeId": 333900159
 },
 {
  "id": "osm-565432844",
  "name": "Cedecpass - Passo di Cedec",
  "lat": 46.4718446,
  "lon": 10.5867377,
  "elevation": 3238,
  "surfaceLabel": "",
  "trafFeriale": 3,
  "trafWeekend": 5,
  "trucks": "rari",
  "snapped": false,
  "nodeId": 565432844
 },
 {
  "id": "osm-1942452533",
  "name": "Col de Novalèse / Passo della Novalesa",
  "lat": 45.216128,
  "lon": 7.0611076,
  "elevation": 3238,
  "surfaceLabel": "",
  "trafFeriale": 3,
  "trafWeekend": 5,
  "trucks": "rari",
  "snapped": false,
  "nodeId": 1942452533
 },
 {
  "id": "osm-3536749792",
  "name": "Col de Cheilon",
  "lat": 45.9947275,
  "lon": 7.4007612,
  "elevation": 3237,
  "surfaceLabel": "",
  "trafFeriale": 3,
  "trafWeekend": 5,
  "trucks": "rari",
  "snapped": false,
  "nodeId": 3536749792
 },
 {
  "id": "osm-321174765",
  "name": "Taschachjoch",
  "lat": 46.887675,
  "lon": 10.8222458,
  "elevation": 3236,
  "surfaceLabel": "",
  "trafFeriale": 3,
  "trafWeekend": 5,
  "trucks": "rari",
  "snapped": false,
  "nodeId": 321174765
 },
 {
  "id": "osm-1628957238",
  "name": "Rossruggscharte",
  "lat": 46.991072,
  "lon": 11.8054663,
  "elevation": 3235,
  "surfaceLabel": "",
  "trafFeriale": 3,
  "trafWeekend": 5,
  "trucks": "rari",
  "snapped": false,
  "nodeId": 1628957238
 },
 {
  "id": "osm-1725337191",
  "name": "Col du Midi des Grands",
  "lat": 45.9983666,
  "lon": 7.0087865,
  "elevation": 3235,
  "surfaceLabel": "",
  "trafFeriale": 3,
  "trafWeekend": 5,
  "trucks": "rari",
  "snapped": false,
  "nodeId": 1725337191
 },
 {
  "id": "osm-512021915",
  "name": "Tiefenbachjoch",
  "lat": 46.9219168,
  "lon": 10.919323,
  "elevation": 3233,
  "surfaceLabel": "",
  "trafFeriale": 3,
  "trafWeekend": 5,
  "trucks": "rari",
  "snapped": false,
  "nodeId": 512021915
 },
 {
  "id": "osm-1372731872",
  "name": "Passo di Gembrè",
  "lat": 46.3580446,
  "lon": 9.9749074,
  "elevation": 3233,
  "surfaceLabel": "",
  "trafFeriale": 3,
  "trafWeekend": 5,
  "trucks": "rari",
  "snapped": false,
  "nodeId": 1372731872
 },
 {
  "id": "osm-456014903",
  "name": "Passaggio dell&#39;Adamello",
  "lat": 46.1478764,
  "lon": 10.4922419,
  "elevation": 3230,
  "surfaceLabel": "",
  "trafFeriale": 3,
  "trafWeekend": 5,
  "trucks": "rari",
  "snapped": false,
  "nodeId": 456014903
 },
 {
  "id": "osm-565219489",
  "name": "Passo della Tredicesima",
  "lat": 46.1835436,
  "lon": 10.5214091,
  "elevation": 3230,
  "surfaceLabel": "",
  "trafFeriale": 3,
  "trafWeekend": 5,
  "trucks": "rari",
  "snapped": false,
  "nodeId": 565219489
 },
 {
  "id": "osm-1975493482",
  "name": "Passo",
  "lat": 46.0243394,
  "lon": 7.8181,
  "elevation": 3230,
  "surfaceLabel": "",
  "trafFeriale": 3,
  "trafWeekend": 5,
  "trucks": "rari",
  "snapped": false,
  "nodeId": 1975493482
 },
 {
  "id": "osm-2527860079",
  "name": "Obere Ödenwinkelscharte",
  "lat": 47.1167298,
  "lon": 12.6665702,
  "elevation": 3228,
  "surfaceLabel": "",
  "trafFeriale": 3,
  "trafWeekend": 5,
  "trucks": "rari",
  "snapped": false,
  "nodeId": 2527860079
 },
 {
  "id": "osm-565219467",
  "name": "Passo Venezia",
  "lat": 46.1843534,
  "lon": 10.5264681,
  "elevation": 3227,
  "surfaceLabel": "",
  "trafFeriale": 3,
  "trafWeekend": 5,
  "trucks": "rari",
  "snapped": false,
  "nodeId": 565219467
 },
 {
  "id": "osm-1975493065",
  "name": "Fluehorelicke",
  "lat": 46.0236256,
  "lon": 7.8261195,
  "elevation": 3225,
  "surfaceLabel": "",
  "trafFeriale": 3,
  "trafWeekend": 5,
  "trucks": "rari",
  "snapped": false,
  "nodeId": 1975493065
 },
 {
  "id": "osm-5152599115",
  "name": "Wasujoch",
  "lat": 46.1721895,
  "lon": 7.7435052,
  "elevation": 3224,
  "surfaceLabel": "",
  "trafFeriale": 3,
  "trafWeekend": 5,
  "trucks": "rari",
  "snapped": false,
  "nodeId": 5152599115
 },
 {
  "id": "osm-515171266",
  "name": "Fanatjoch",
  "lat": 46.7746346,
  "lon": 10.9528229,
  "elevation": 3223,
  "surfaceLabel": "",
  "trafFeriale": 3,
  "trafWeekend": 5,
  "trucks": "rari",
  "snapped": false,
  "nodeId": 515171266
 },
 {
  "id": "osm-1372729134",
  "name": "Passo Lurani",
  "lat": 46.3008813,
  "lon": 9.6799341,
  "elevation": 3222,
  "surfaceLabel": "",
  "trafFeriale": 3,
  "trafWeekend": 5,
  "trucks": "rari",
  "snapped": false,
  "nodeId": 1372729134
 },
 {
  "id": "osm-514223860",
  "name": "Passo",
  "lat": 46.8961851,
  "lon": 10.9076033,
  "elevation": 3220,
  "surfaceLabel": "",
  "trafFeriale": 3,
  "trafWeekend": 5,
  "trucks": "rari",
  "snapped": false,
  "nodeId": 514223860
 },
 {
  "id": "osm-5152599340",
  "name": "Jungtaljoch",
  "lat": 46.1753136,
  "lon": 7.737483,
  "elevation": 3220,
  "surfaceLabel": "",
  "trafFeriale": 3,
  "trafWeekend": 5,
  "trucks": "rari",
  "snapped": false,
  "nodeId": 5152599340
 },
 {
  "id": "osm-321174855",
  "name": "Taufkarjoch",
  "lat": 46.8887431,
  "lon": 10.8935601,
  "elevation": 3218,
  "surfaceLabel": "",
  "trafFeriale": 3,
  "trafWeekend": 5,
  "trucks": "rari",
  "snapped": false,
  "nodeId": 321174855
 },
 {
  "id": "osm-5152599338",
  "name": "Rothornjoch",
  "lat": 46.1788624,
  "lon": 7.7322185,
  "elevation": 3216,
  "surfaceLabel": "",
  "trafFeriale": 3,
  "trafWeekend": 5,
  "trucks": "rari",
  "snapped": false,
  "nodeId": 5152599338
 },
 {
  "id": "osm-515113629",
  "name": "Passo",
  "lat": 46.8302682,
  "lon": 10.9521562,
  "elevation": 3214,
  "surfaceLabel": "",
  "trafFeriale": 3,
  "trafWeekend": 5,
  "trucks": "rari",
  "snapped": false,
  "nodeId": 515113629
 },
 {
  "id": "osm-3178070112",
  "name": "Col du Mont Brûlé",
  "lat": 45.964691,
  "lon": 7.5453567,
  "elevation": 3213,
  "surfaceLabel": "",
  "trafFeriale": 3,
  "trafWeekend": 5,
  "trucks": "rari",
  "snapped": false,
  "nodeId": 3178070112
 },
 {
  "id": "osm-513402229",
  "name": "Passo",
  "lat": 47.0101908,
  "lon": 10.909634,
  "elevation": 3207,
  "surfaceLabel": "",
  "trafFeriale": 3,
  "trafWeekend": 5,
  "trucks": "rari",
  "snapped": false,
  "nodeId": 513402229
 },
 {
  "id": "osm-3683695314",
  "name": "Passage du Colerin / Passo Collerin",
  "lat": 45.3188025,
  "lon": 7.1093624,
  "elevation": 3207,
  "surfaceLabel": "",
  "trafFeriale": 3,
  "trafWeekend": 5,
  "trucks": "rari",
  "snapped": false,
  "nodeId": 3683695314
 },
 {
  "id": "osm-411351335",
  "name": "Pfaffenjoch",
  "lat": 46.9696344,
  "lon": 11.1431114,
  "elevation": 3206,
  "surfaceLabel": "",
  "trafFeriale": 3,
  "trafWeekend": 5,
  "trucks": "rari",
  "snapped": false,
  "nodeId": 411351335
 },
 {
  "id": "osm-1372728522",
  "name": "Passo del Ferro",
  "lat": 46.2876914,
  "lon": 9.6200087,
  "elevation": 3205,
  "surfaceLabel": "",
  "trafFeriale": 3,
  "trafWeekend": 5,
  "trucks": "rari",
  "snapped": false,
  "nodeId": 1372728522
 },
 {
  "id": "osm-515155672",
  "name": "Steiniglehnscharte",
  "lat": 46.8735483,
  "lon": 10.9841243,
  "elevation": 3200,
  "surfaceLabel": "",
  "trafFeriale": 3,
  "trafWeekend": 5,
  "trucks": "rari",
  "snapped": false,
  "nodeId": 515155672
 },
 {
  "id": "osm-564376476",
  "name": "Passo Cecilia",
  "lat": 46.268321,
  "lon": 9.7395777,
  "elevation": 3200,
  "surfaceLabel": "",
  "trafFeriale": 3,
  "trafWeekend": 5,
  "trucks": "rari",
  "snapped": false,
  "nodeId": 564376476
 },
 {
  "id": "osm-1868700832",
  "name": "Passo di Cavento",
  "lat": 46.1394203,
  "lon": 10.5873839,
  "elevation": 3199,
  "surfaceLabel": "",
  "trafFeriale": 3,
  "trafWeekend": 5,
  "trucks": "rari",
  "snapped": false,
  "nodeId": 1868700832
 },
 {
  "id": "osm-564376712",
  "name": "Forcola di Rosso",
  "lat": 46.3086542,
  "lon": 9.7215568,
  "elevation": 3198,
  "surfaceLabel": "",
  "trafFeriale": 3,
  "trafWeekend": 5,
  "trucks": "rari",
  "snapped": false,
  "nodeId": 564376712
 },
 {
  "id": "osm-321178661",
  "name": "Schwabenjoch",
  "lat": 47.00447,
  "lon": 10.79851,
  "elevation": 3196,
  "surfaceLabel": "",
  "trafFeriale": 3,
  "trafWeekend": 5,
  "trucks": "rari",
  "snapped": false,
  "nodeId": 321178661
 },
 {
  "id": "osm-516060026",
  "name": "Matscher Jöchl - Passo di Mazia",
  "lat": 46.7900364,
  "lon": 10.6847994,
  "elevation": 3196,
  "surfaceLabel": "",
  "trafFeriale": 3,
  "trafWeekend": 5,
  "trucks": "rari",
  "snapped": false,
  "nodeId": 516060026
 },
 {
  "id": "osm-1905170622",
  "name": "Colle della Rossa",
  "lat": 45.588933,
  "lon": 7.2836526,
  "elevation": 3193,
  "surfaceLabel": "",
  "trafFeriale": 3,
  "trafWeekend": 5,
  "trucks": "rari",
  "snapped": false,
  "nodeId": 1905170622
 },
 {
  "id": "osm-514450283",
  "name": "Langtauferer Joch - Bocchetta di Vallelunga",
  "lat": 46.8129178,
  "lon": 10.7500683,
  "elevation": 3191,
  "surfaceLabel": "",
  "trafFeriale": 3,
  "trafWeekend": 5,
  "trucks": "rari",
  "snapped": false,
  "nodeId": 514450283
 },
 {
  "id": "osm-1900461635",
  "name": "Col de la Rochère",
  "lat": 45.8121036,
  "lon": 7.0625606,
  "elevation": 3191,
  "surfaceLabel": "",
  "trafFeriale": 3,
  "trafWeekend": 5,
  "trucks": "rari",
  "snapped": false,
  "nodeId": 1900461635
 },
 {
  "id": "osm-473482852",
  "name": "Brèches des Doigts",
  "lat": 46.162458,
  "lon": 6.9259279,
  "elevation": 3190,
  "surfaceLabel": "",
  "trafFeriale": 3,
  "trafWeekend": 5,
  "trucks": "rari",
  "snapped": false,
  "nodeId": 473482852
 },
 {
  "id": "osm-294771784",
  "name": "Ramoljoch",
  "lat": 46.8352177,
  "lon": 10.9651792,
  "elevation": 3189,
  "surfaceLabel": "",
  "trafFeriale": 3,
  "trafWeekend": 5,
  "trucks": "rari",
  "snapped": false,
  "nodeId": 294771784
 },
 {
  "id": "osm-1596376523",
  "name": "Tisenjoch - Giogo di Tisa",
  "lat": 46.7785823,
  "lon": 10.8414097,
  "elevation": 3188,
  "surfaceLabel": "",
  "trafFeriale": 3,
  "trafWeekend": 5,
  "trucks": "rari",
  "snapped": false,
  "nodeId": 1596376523
 },
 {
  "id": "osm-824787569",
  "name": "Colle della Torre",
  "lat": 45.4874638,
  "lon": 7.2513521,
  "elevation": 3186,
  "surfaceLabel": "",
  "trafFeriale": 3,
  "trafWeekend": 5,
  "trucks": "rari",
  "snapped": false,
  "nodeId": 824787569
 },
 {
  "id": "osm-1022975038",
  "name": "Warenkarscharte",
  "lat": 46.9843988,
  "lon": 11.080107,
  "elevation": 3186,
  "surfaceLabel": "",
  "trafFeriale": 3,
  "trafWeekend": 5,
  "trucks": "rari",
  "snapped": false,
  "nodeId": 1022975038
 },
 {
  "id": "osm-5636202358",
  "name": "Col du Montet",
  "lat": 45.4324,
  "lon": 7.0925,
  "elevation": 3185,
  "surfaceLabel": "",
  "trafFeriale": 3,
  "trafWeekend": 5,
  "trucks": "rari",
  "snapped": false,
  "nodeId": 5636202358
 },
 {
  "id": "osm-485937771",
  "name": "Colle della Muraille Rouge",
  "lat": 45.5460931,
  "lon": 7.4170195,
  "elevation": 3183,
  "surfaceLabel": "",
  "trafFeriale": 3,
  "trafWeekend": 5,
  "trucks": "rari",
  "snapped": false,
  "nodeId": 485937771
 },
 {
  "id": "osm-932271781",
  "name": "Obere Weisszintscharte",
  "lat": 46.9622049,
  "lon": 11.7402871,
  "elevation": 3183,
  "surfaceLabel": "",
  "trafFeriale": 3,
  "trafWeekend": 5,
  "trucks": "rari",
  "snapped": false,
  "nodeId": 932271781
 },
 {
  "id": "osm-1942457845",
  "name": "Col de la Resta / Col della Resta",
  "lat": 45.2150132,
  "lon": 7.0829893,
  "elevation": 3183,
  "surfaceLabel": "",
  "trafFeriale": 3,
  "trafWeekend": 5,
  "trucks": "rari",
  "snapped": false,
  "nodeId": 1942457845
 },
 {
  "id": "osm-333900506",
  "name": "Trippachscharte",
  "lat": 47.028101,
  "lon": 11.9110909,
  "elevation": 3182,
  "surfaceLabel": "",
  "trafFeriale": 3,
  "trafWeekend": 5,
  "trucks": "rari",
  "snapped": false,
  "nodeId": 333900506
 },
 {
  "id": "osm-2547751512",
  "name": "Hohenwartscharte",
  "lat": 47.066204,
  "lon": 12.713145,
  "elevation": 3182,
  "surfaceLabel": "",
  "trafFeriale": 3,
  "trafWeekend": 5,
  "trucks": "rari",
  "snapped": false,
  "nodeId": 2547751512
 },
 {
  "id": "osm-459849552",
  "name": "Col des Ignes",
  "lat": 46.0364693,
  "lon": 7.4312609,
  "elevation": 3181,
  "surfaceLabel": "",
  "trafFeriale": 3,
  "trafWeekend": 5,
  "trucks": "rari",
  "snapped": false,
  "nodeId": 459849552
 },
 {
  "id": "osm-565219456",
  "name": "Passo della Valletta",
  "lat": 46.1859074,
  "lon": 10.5313337,
  "elevation": 3180,
  "surfaceLabel": "",
  "trafFeriale": 3,
  "trafWeekend": 5,
  "trucks": "rari",
  "snapped": false,
  "nodeId": 565219456
 },
 {
  "id": "osm-565219477",
  "name": "Passo Garibaldi",
  "lat": 46.1746194,
  "lon": 10.5147068,
  "elevation": 3180,
  "surfaceLabel": "",
  "trafFeriale": 3,
  "trafWeekend": 5,
  "trucks": "rari",
  "snapped": false,
  "nodeId": 565219477
 },
 {
  "id": "osm-564938410",
  "name": "Passo dei Camosci Alto",
  "lat": 46.4918536,
  "lon": 10.5118467,
  "elevation": 3177,
  "surfaceLabel": "",
  "trafFeriale": 3,
  "trafWeekend": 5,
  "trucks": "rari",
  "snapped": false,
  "nodeId": 564938410
 },
 {
  "id": "osm-3174895496",
  "name": "Col des Vignettes",
  "lat": 45.9894395,
  "lon": 7.4725896,
  "elevation": 3176,
  "surfaceLabel": "",
  "trafFeriale": 3,
  "trafWeekend": 5,
  "trucks": "rari",
  "snapped": false,
  "nodeId": 3174895496
 },
 {
  "id": "osm-1420818441",
  "name": "Lötschenlücke",
  "lat": 46.4744489,
  "lon": 7.9623992,
  "elevation": 3173,
  "surfaceLabel": "",
  "trafFeriale": 3,
  "trafWeekend": 5,
  "trucks": "rari",
  "snapped": false,
  "nodeId": 1420818441
 },
 {
  "id": "osm-9595558398",
  "name": "Mitterbachjoch",
  "lat": 47.000352,
  "lon": 11.8435991,
  "elevation": 3172,
  "surfaceLabel": "",
  "trafFeriale": 3,
  "trafWeekend": 5,
  "trucks": "rari",
  "snapped": false,
  "nodeId": 9595558398
 },
 {
  "id": "osm-321178405",
  "name": "Passo",
  "lat": 46.924572,
  "lon": 10.788242,
  "elevation": 3170,
  "surfaceLabel": "",
  "trafFeriale": 3,
  "trafWeekend": 5,
  "trucks": "rari",
  "snapped": false,
  "nodeId": 321178405
 },
 {
  "id": "osm-1979460401",
  "name": "Teufelsjoch",
  "lat": 46.7874696,
  "lon": 10.7624889,
  "elevation": 3170,
  "surfaceLabel": "",
  "trafFeriale": 3,
  "trafWeekend": 5,
  "trucks": "rari",
  "snapped": false,
  "nodeId": 1979460401
 },
 {
  "id": "osm-2992569386",
  "name": "Wildgratscharte",
  "lat": 47.0485295,
  "lon": 11.1168764,
  "elevation": 3170,
  "surfaceLabel": "",
  "trafFeriale": 3,
  "trafWeekend": 5,
  "trucks": "rari",
  "snapped": false,
  "nodeId": 2992569386
 },
 {
  "id": "osm-654142252",
  "name": "Wetterlücke",
  "lat": 46.4769644,
  "lon": 7.8579431,
  "elevation": 3169,
  "surfaceLabel": "",
  "trafFeriale": 3,
  "trafWeekend": 5,
  "trucks": "rari",
  "snapped": false,
  "nodeId": 654142252
 },
 {
  "id": "osm-1372728556",
  "name": "Passo di Bondo",
  "lat": 46.2887155,
  "lon": 9.6179258,
  "elevation": 3169,
  "surfaceLabel": "",
  "trafFeriale": 3,
  "trafWeekend": 5,
  "trucks": "rari",
  "snapped": false,
  "nodeId": 1372728556
 },
 {
  "id": "osm-514294742",
  "name": "Mittelbergjoch",
  "lat": 46.9058299,
  "lon": 10.8678725,
  "elevation": 3166,
  "surfaceLabel": "",
  "trafFeriale": 3,
  "trafWeekend": 5,
  "trucks": "rari",
  "snapped": false,
  "nodeId": 514294742
 },
 {
  "id": "osm-514511409",
  "name": "Eggjoch",
  "lat": 46.7908336,
  "lon": 10.7783394,
  "elevation": 3163,
  "surfaceLabel": "",
  "trafFeriale": 3,
  "trafWeekend": 5,
  "trucks": "rari",
  "snapped": false,
  "nodeId": 514511409
 },
 {
  "id": "osm-5994932312",
  "name": "Col de l&#39;Agnel supérieur / Colle dell&#39;Agnello superiore",
  "lat": 45.1449052,
  "lon": 6.8922519,
  "elevation": 3160,
  "surfaceLabel": "",
  "trafFeriale": 3,
  "trafWeekend": 5,
  "trucks": "rari",
  "snapped": false,
  "nodeId": 5994932312
 },
 {
  "id": "osm-512021916",
  "name": "Passo",
  "lat": 46.9207736,
  "lon": 10.9168452,
  "elevation": 3157,
  "surfaceLabel": "",
  "trafFeriale": 3,
  "trafWeekend": 5,
  "trucks": "rari",
  "snapped": false,
  "nodeId": 512021916
 },
 {
  "id": "osm-658836537",
  "name": "Baltschiederjoch",
  "lat": 46.403504,
  "lon": 7.8566292,
  "elevation": 3156,
  "surfaceLabel": "",
  "trafFeriale": 3,
  "trafWeekend": 5,
  "trucks": "rari",
  "snapped": false,
  "nodeId": 658836537
 },
 {
  "id": "osm-2670644821",
  "name": "Daunscharte",
  "lat": 46.9910922,
  "lon": 11.0909977,
  "elevation": 3155,
  "surfaceLabel": "",
  "trafFeriale": 3,
  "trafWeekend": 5,
  "trucks": "rari",
  "snapped": false,
  "nodeId": 2670644821
 },
 {
  "id": "osm-1503713180",
  "name": "Colle d&#39;Arbolle",
  "lat": 45.6692379,
  "lon": 7.3866663,
  "elevation": 3154,
  "surfaceLabel": "",
  "trafFeriale": 3,
  "trafWeekend": 5,
  "trucks": "rari",
  "snapped": false,
  "nodeId": 1503713180
 },
 {
  "id": "osm-1900334859",
  "name": "Col Bassac",
  "lat": 45.5295005,
  "lon": 7.0573053,
  "elevation": 3154,
  "surfaceLabel": "",
  "trafFeriale": 3,
  "trafWeekend": 5,
  "trucks": "rari",
  "snapped": false,
  "nodeId": 1900334859
 },
 {
  "id": "osm-2783067426",
  "name": "Col de la Tsanteleina / Col di Tsanteleina",
  "lat": 45.4848667,
  "lon": 7.0492167,
  "elevation": 3154,
  "surfaceLabel": "",
  "trafFeriale": 3,
  "trafWeekend": 5,
  "trucks": "rari",
  "snapped": false,
  "nodeId": 2783067426
 },
 {
  "id": "osm-3008445746",
  "name": "Untere Ödenwinkelscharte",
  "lat": 47.1027357,
  "lon": 12.6620634,
  "elevation": 3154,
  "surfaceLabel": "",
  "trafFeriale": 3,
  "trafWeekend": 5,
  "trucks": "rari",
  "snapped": false,
  "nodeId": 3008445746
 },
 {
  "id": "osm-470880380",
  "name": "Colletto Disgrazia",
  "lat": 46.2781795,
  "lon": 9.7572046,
  "elevation": 3151,
  "surfaceLabel": "",
  "trafFeriale": 3,
  "trafWeekend": 5,
  "trucks": "rari",
  "snapped": false,
  "nodeId": 470880380
 },
 {
  "id": "osm-515074196",
  "name": "Gurgler Eisjoch",
  "lat": 46.7685871,
  "lon": 11.0050666,
  "elevation": 3151,
  "surfaceLabel": "",
  "trafFeriale": 3,
  "trafWeekend": 5,
  "trucks": "rari",
  "snapped": false,
  "nodeId": 515074196
 },
 {
  "id": "osm-435190468",
  "name": "Col de la Gouille",
  "lat": 45.9039693,
  "lon": 7.2610409,
  "elevation": 3150,
  "surfaceLabel": "",
  "trafFeriale": 3,
  "trafWeekend": 5,
  "trucks": "rari",
  "snapped": false,
  "nodeId": 435190468
 },
 {
  "id": "osm-496856438",
  "name": "Passo del Venerocolo",
  "lat": 46.1858469,
  "lon": 10.5164556,
  "elevation": 3150,
  "surfaceLabel": "",
  "trafFeriale": 3,
  "trafWeekend": 5,
  "trucks": "rari",
  "snapped": false,
  "nodeId": 496856438
 },
 {
  "id": "osm-847222456",
  "name": "Eisseepass - Passo del Lago Gelato",
  "lat": 46.4746773,
  "lon": 10.6060673,
  "elevation": 3150,
  "surfaceLabel": "",
  "trafFeriale": 3,
  "trafWeekend": 5,
  "trucks": "rari",
  "snapped": false,
  "nodeId": 847222456
 },
 {
  "id": "osm-1975493205",
  "name": "Passo",
  "lat": 46.0193019,
  "lon": 7.8354032,
  "elevation": 3150,
  "surfaceLabel": "",
  "trafFeriale": 3,
  "trafWeekend": 5,
  "trucks": "rari",
  "snapped": false,
  "nodeId": 1975493205
 },
 {
  "id": "osm-9331648365",
  "name": "Col du Carro / Colle del Carro",
  "lat": 45.4292455,
  "lon": 7.1278229,
  "elevation": 3150,
  "surfaceLabel": "",
  "trafFeriale": 3,
  "trafWeekend": 5,
  "trucks": "rari",
  "snapped": false,
  "nodeId": 9331648365
 },
 {
  "id": "osm-2417801233",
  "name": "Riffljoch",
  "lat": 46.898729,
  "lon": 10.673197,
  "elevation": 3149,
  "surfaceLabel": "",
  "trafFeriale": 3,
  "trafWeekend": 5,
  "trucks": "rari",
  "snapped": false,
  "nodeId": 2417801233
 },
 {
  "id": "osm-4967874169",
  "name": "Bocchetta di Lagolungo",
  "lat": 46.4418105,
  "lon": 10.6930793,
  "elevation": 3149,
  "surfaceLabel": "",
  "trafFeriale": 3,
  "trafWeekend": 5,
  "trucks": "rari",
  "snapped": false,
  "nodeId": 4967874169
 },
 {
  "id": "osm-469352837",
  "name": "Passo",
  "lat": 46.0411003,
  "lon": 7.3606864,
  "elevation": 3148,
  "surfaceLabel": "",
  "trafFeriale": 3,
  "trafWeekend": 5,
  "trucks": "rari",
  "snapped": false,
  "nodeId": 469352837
 },
 {
  "id": "osm-1372729070",
  "name": "Passo Sissone",
  "lat": 46.2992654,
  "lon": 9.715175,
  "elevation": 3148,
  "surfaceLabel": "",
  "trafFeriale": 3,
  "trafWeekend": 5,
  "trucks": "rari",
  "snapped": false,
  "nodeId": 1372729070
 },
 {
  "id": "osm-1373137962",
  "name": "Rossbodepass",
  "lat": 46.1929326,
  "lon": 7.9915289,
  "elevation": 3148,
  "surfaceLabel": "",
  "trafFeriale": 3,
  "trafWeekend": 5,
  "trucks": "rari",
  "snapped": false,
  "nodeId": 1373137962
 },
 {
  "id": "osm-395479224",
  "name": "Sonnigpass / Bocchetta di Bottarello",
  "lat": 46.0818001,
  "lon": 8.0292784,
  "elevation": 3147,
  "surfaceLabel": "",
  "trafFeriale": 3,
  "trafWeekend": 5,
  "trucks": "rari",
  "snapped": false,
  "nodeId": 395479224
 },
 {
  "id": "osm-496493205",
  "name": "Passo Brizio",
  "lat": 46.1720001,
  "lon": 10.5143247,
  "elevation": 3147,
  "surfaceLabel": "",
  "trafFeriale": 3,
  "trafWeekend": 5,
  "trucks": "rari",
  "snapped": false,
  "nodeId": 496493205
 },
 {
  "id": "osm-3006451743",
  "name": "Lübecker Scharte",
  "lat": 46.9714017,
  "lon": 11.1825223,
  "elevation": 3146,
  "surfaceLabel": "",
  "trafFeriale": 3,
  "trafWeekend": 5,
  "trucks": "rari",
  "snapped": false,
  "nodeId": 3006451743
 },
 {
  "id": "osm-1308004948",
  "name": "Colle del Tournalin",
  "lat": 45.8668657,
  "lon": 7.685797,
  "elevation": 3145,
  "surfaceLabel": "",
  "trafFeriale": 3,
  "trafWeekend": 5,
  "trucks": "rari",
  "snapped": false,
  "nodeId": 1308004948
 },
 {
  "id": "osm-3034398876",
  "name": "Col du Mont Gelé",
  "lat": 45.8940789,
  "lon": 7.3735371,
  "elevation": 3144,
  "surfaceLabel": "",
  "trafFeriale": 3,
  "trafWeekend": 5,
  "trucks": "rari",
  "snapped": false,
  "nodeId": 3034398876
 },
 {
  "id": "osm-3039871976",
  "name": "Col du Pigne",
  "lat": 46.0871526,
  "lon": 7.6086942,
  "elevation": 3140,
  "surfaceLabel": "",
  "trafFeriale": 3,
  "trafWeekend": 5,
  "trucks": "rari",
  "snapped": false,
  "nodeId": 3039871976
 },
 {
  "id": "osm-1975494258",
  "name": "Wissgrat",
  "lat": 46.0585987,
  "lon": 7.8399347,
  "elevation": 3139,
  "surfaceLabel": "",
  "trafFeriale": 3,
  "trafWeekend": 5,
  "trucks": "rari",
  "snapped": false,
  "nodeId": 1975494258
 },
 {
  "id": "osm-321178573",
  "name": "Watzejoch",
  "lat": 46.9770733,
  "lon": 10.798888,
  "elevation": 3138,
  "surfaceLabel": "",
  "trafFeriale": 3,
  "trafWeekend": 5,
  "trucks": "rari",
  "snapped": false,
  "nodeId": 321178573
 },
 {
  "id": "osm-3006451745",
  "name": "Pfaffennieder",
  "lat": 46.9640149,
  "lon": 11.1757435,
  "elevation": 3136,
  "surfaceLabel": "",
  "trafFeriale": 3,
  "trafWeekend": 5,
  "trucks": "rari",
  "snapped": false,
  "nodeId": 3006451745
 },
 {
  "id": "osm-514738626",
  "name": "Passo",
  "lat": 46.8228928,
  "lon": 11.0229619,
  "elevation": 3133,
  "surfaceLabel": "",
  "trafFeriale": 3,
  "trafWeekend": 5,
  "trucks": "rari",
  "snapped": false,
  "nodeId": 514738626
 },
 {
  "id": "osm-514223862",
  "name": "Passo",
  "lat": 46.9011154,
  "lon": 10.9103533,
  "elevation": 3130,
  "surfaceLabel": "",
  "trafFeriale": 3,
  "trafWeekend": 5,
  "trucks": "rari",
  "snapped": false,
  "nodeId": 514223862
 },
 {
  "id": "osm-658836545",
  "name": "Beichpass",
  "lat": 46.435044,
  "lon": 7.9195862,
  "elevation": 3128,
  "surfaceLabel": "",
  "trafFeriale": 3,
  "trafWeekend": 5,
  "trucks": "rari",
  "snapped": false,
  "nodeId": 658836545
 },
 {
  "id": "osm-94950235",
  "name": "Schnalser Schartl",
  "lat": 46.7789875,
  "lon": 10.67575,
  "elevation": 3127,
  "surfaceLabel": "",
  "trafFeriale": 3,
  "trafWeekend": 5,
  "trucks": "rari",
  "versanti": [
   {
    "side": "Versante Nord-Ovest",
    "startLat": 46.772298,
    "startLon": 10.6973655,
    "startElevation": 2394,
    "endElevation": 3118,
    "distance_km": 2.3,
    "avgGradient": 31.7,
    "maxGradient": 72.6,
    "traffic": "n/d",
    "exposure": "Nord-Ovest",
    "elevationProfile": [
     2394,
     2455,
     2455,
     2501,
     2501,
     2547,
     2581,
     2614,
     2642,
     2660,
     2775,
     2860,
     2958,
     3000,
     3079,
     3121,
     3121,
     3118
    ],
    "track": [
     [
      46.772298,
      10.6973655
     ],
     [
      46.7719869,
      10.6962983
     ],
     [
      46.7720466,
      10.6959742
     ],
     [
      46.7724022,
      10.6955594
     ],
     [
      46.7720251,
      10.6955002
     ],
     [
      46.7721898,
      10.695312
     ],
     [
      46.7720275,
      10.6952528
     ],
     [
      46.7722399,
      10.6949635
     ],
     [
      46.7718628,
      10.6947021
     ],
     [
      46.7719439,
      10.694608
     ],
     [
      46.771963,
      10.6944442
     ],
     [
      46.771889,
      10.694385
     ],
     [
      46.7719941,
      10.6942595
     ],
     [
      46.771667,
      10.6940435
     ],
     [
      46.7716909,
      10.6939598
     ],
     [
      46.7715716,
      10.693803
     ],
     [
      46.7716312,
      10.6935381
     ],
     [
      46.7716002,
      10.6933883
     ],
     [
      46.7718294,
      10.6932837
     ],
     [
      46.7716933,
      10.6929805
     ],
     [
      46.7718246,
      10.6922905
     ],
     [
      46.7718317,
      10.6917015
     ],
     [
      46.7719392,
      10.6914227
     ],
     [
      46.7718938,
      10.6909383
     ],
     [
      46.7719559,
      10.6904539
     ],
     [
      46.7719224,
      10.6900915
     ],
     [
      46.7721253,
      10.6894816
     ],
     [
      46.772216,
      10.688701
     ],
     [
      46.7723807,
      10.6880283
     ],
     [
      46.7726648,
      10.6874394
     ],
     [
      46.7728381,
      10.6856206
     ],
     [
      46.7731197,
      10.6834668
     ],
     [
      46.7732343,
      10.6834459
     ],
     [
      46.7739742,
      10.682261
     ],
     [
      46.7745613,
      10.6818777
     ],
     [
      46.774843,
      10.6819404
     ],
     [
      46.7769099,
      10.6800097
     ],
     [
      46.7769242,
      10.6798563
     ],
     [
      46.7773108,
      10.679243
     ],
     [
      46.7781987,
      10.6782811
     ],
     [
      46.7782703,
      10.6783648
     ],
     [
      46.7789767,
      10.677375
     ],
     [
      46.7789003,
      10.6770614
     ],
     [
      46.7790197,
      10.6770056
     ],
     [
      46.7788812,
      10.6766571
     ],
     [
      46.778853,
      10.6764365
     ],
     [
      46.7789305,
      10.6764069
     ],
     [
      46.7789087,
      10.6763382
     ],
     [
      46.7789863,
      10.6762528
     ],
     [
      46.7788717,
      10.6760856
     ],
     [
      46.7789863,
      10.6760647
     ],
     [
      46.7789194,
      10.6759253
     ],
     [
      46.7789875,
      10.67575
     ]
    ]
   }
  ],
  "difficulty": 10,
  "snapped": false,
  "nodeId": 94950235
 },
 {
  "id": "osm-2286527807",
  "name": "Turmscharte",
  "lat": 47.0645567,
  "lon": 11.1156377,
  "elevation": 3126,
  "surfaceLabel": "",
  "trafFeriale": 3,
  "trafWeekend": 5,
  "trucks": "rari",
  "snapped": false,
  "nodeId": 2286527807
 },
 {
  "id": "osm-2983083523",
  "name": "Bocca di Saent sud",
  "lat": 46.4533638,
  "lon": 10.7258974,
  "elevation": 3125,
  "surfaceLabel": "",
  "trafFeriale": 3,
  "trafWeekend": 5,
  "trucks": "rari",
  "snapped": false,
  "nodeId": 2983083523
 },
 {
  "id": "osm-3152804800",
  "name": "Fineiljoch",
  "lat": 46.7704486,
  "lon": 10.8096754,
  "elevation": 3125,
  "surfaceLabel": "",
  "trafFeriale": 3,
  "trafWeekend": 5,
  "trucks": "rari",
  "snapped": false,
  "nodeId": 3152804800
 },
 {
  "id": "osm-158717545",
  "name": "Passo del Madriccio",
  "lat": 46.4980343,
  "lon": 10.6293266,
  "elevation": 3123,
  "surfaceLabel": "",
  "trafFeriale": 3,
  "trafWeekend": 5,
  "trucks": "rari",
  "enrichFailed": true,
  "snapped": false,
  "nodeId": 158717545
 },
 {
  "id": "osm-1369014627",
  "name": "Col d&#39;Asti / Sella d&#39;Asti",
  "lat": 44.6873062,
  "lon": 7.0033165,
  "elevation": 3123,
  "surfaceLabel": "",
  "trafFeriale": 3,
  "trafWeekend": 5,
  "trucks": "rari",
  "snapped": false,
  "nodeId": 1369014627
 },
 {
  "id": "osm-1373118652",
  "name": "Chummenchlene",
  "lat": 46.0351377,
  "lon": 7.8038434,
  "elevation": 3121,
  "surfaceLabel": "",
  "trafFeriale": 3,
  "trafWeekend": 5,
  "trucks": "rari",
  "snapped": false,
  "nodeId": 1373118652
 },
 {
  "id": "osm-1430299441",
  "name": "Col de Vofrède",
  "lat": 45.9090823,
  "lon": 7.5848481,
  "elevation": 3121,
  "surfaceLabel": "",
  "trafFeriale": 3,
  "trafWeekend": 5,
  "trucks": "rari",
  "snapped": false,
  "nodeId": 1430299441
 },
 {
  "id": "osm-2782991668",
  "name": "Col de Basagne",
  "lat": 45.4704926,
  "lon": 7.0916773,
  "elevation": 3120,
  "surfaceLabel": "",
  "trafFeriale": 3,
  "trafWeekend": 5,
  "trucks": "rari",
  "snapped": false,
  "nodeId": 2782991668
 },
 {
  "id": "osm-358148150",
  "name": "Col de la Lire Rose",
  "lat": 45.9672396,
  "lon": 7.3901183,
  "elevation": 3115,
  "surfaceLabel": "",
  "trafFeriale": 3,
  "trafWeekend": 5,
  "trucks": "rari",
  "snapped": false,
  "nodeId": 358148150
 },
 {
  "id": "osm-1372212176",
  "name": "Petersgratpass",
  "lat": 46.4658061,
  "lon": 7.8224678,
  "elevation": 3115,
  "surfaceLabel": "",
  "trafFeriale": 3,
  "trafWeekend": 5,
  "trucks": "rari",
  "snapped": false,
  "nodeId": 1372212176
 },
 {
  "id": "osm-647370842",
  "name": "Wasulicke",
  "lat": 46.175454,
  "lon": 7.753957,
  "elevation": 3114,
  "surfaceLabel": "",
  "trafFeriale": 3,
  "trafWeekend": 5,
  "trucks": "rari",
  "snapped": false,
  "nodeId": 647370842
 },
 {
  "id": "osm-1725337149",
  "name": "Col des Essettes",
  "lat": 45.9550511,
  "lon": 7.0631556,
  "elevation": 3113,
  "surfaceLabel": "",
  "trafFeriale": 3,
  "trafWeekend": 5,
  "trucks": "rari",
  "snapped": false,
  "nodeId": 1725337149
 },
 {
  "id": "osm-5154870400",
  "name": "Magdeburger Scharte",
  "lat": 46.9668921,
  "lon": 11.2418649,
  "elevation": 3113,
  "surfaceLabel": "",
  "trafFeriale": 3,
  "trafWeekend": 5,
  "trucks": "rari",
  "snapped": false,
  "nodeId": 5154870400
 },
 {
  "id": "osm-1372731857",
  "name": "Passo Scerscen",
  "lat": 46.3577099,
  "lon": 9.8300838,
  "elevation": 3112,
  "surfaceLabel": "",
  "trafFeriale": 3,
  "trafWeekend": 5,
  "trucks": "rari",
  "snapped": false,
  "nodeId": 1372731857
 },
 {
  "id": "osm-565219500",
  "name": "Passo dell&#39;Adamè",
  "lat": 46.1471545,
  "lon": 10.5350982,
  "elevation": 3111,
  "surfaceLabel": "",
  "trafFeriale": 3,
  "trafWeekend": 5,
  "trucks": "rari",
  "snapped": false,
  "nodeId": 565219500
 },
 {
  "id": "osm-2527853837",
  "name": "Riffltor",
  "lat": 47.1216825,
  "lon": 12.6825214,
  "elevation": 3111,
  "surfaceLabel": "",
  "trafFeriale": 3,
  "trafWeekend": 5,
  "trucks": "rari",
  "snapped": false,
  "nodeId": 2527853837
 },
 {
  "id": "osm-514339161",
  "name": "Wannetjoch",
  "lat": 46.8895347,
  "lon": 10.7809446,
  "elevation": 3110,
  "surfaceLabel": "",
  "trafFeriale": 3,
  "trafWeekend": 5,
  "trucks": "rari",
  "snapped": false,
  "nodeId": 514339161
 },
 {
  "id": "osm-4439581694",
  "name": "Colle delle Pisse",
  "lat": 45.883657,
  "lon": 7.8651885,
  "elevation": 3109,
  "surfaceLabel": "",
  "trafFeriale": 3,
  "trafWeekend": 5,
  "trucks": "rari",
  "snapped": false,
  "nodeId": 4439581694
 },
 {
  "id": "osm-4513328575",
  "name": "Col di Belleface",
  "lat": 45.6015107,
  "lon": 7.2401369,
  "elevation": 3109,
  "surfaceLabel": "",
  "trafFeriale": 3,
  "trafWeekend": 5,
  "trucks": "rari",
  "snapped": false,
  "nodeId": 4513328575
 },
 {
  "id": "osm-564376669",
  "name": "Passo di Chiareggio",
  "lat": 46.2895591,
  "lon": 9.718662,
  "elevation": 3107,
  "surfaceLabel": "",
  "trafFeriale": 3,
  "trafWeekend": 5,
  "trucks": "rari",
  "snapped": false,
  "nodeId": 564376669
 },
 {
  "id": "osm-3010869828",
  "name": "Col de Valsorey",
  "lat": 45.9002681,
  "lon": 7.2736675,
  "elevation": 3106,
  "surfaceLabel": "",
  "trafFeriale": 3,
  "trafWeekend": 5,
  "trucks": "rari",
  "snapped": false,
  "nodeId": 3010869828
 },
 {
  "id": "osm-514556964",
  "name": "Karlesjoch",
  "lat": 46.8570856,
  "lon": 10.6937799,
  "elevation": 3105,
  "surfaceLabel": "",
  "trafFeriale": 3,
  "trafWeekend": 5,
  "trucks": "rari",
  "snapped": false,
  "nodeId": 514556964
 },
 {
  "id": "osm-983587859",
  "name": "Burgwartscharte",
  "lat": 47.0645747,
  "lon": 12.698177,
  "elevation": 3104,
  "surfaceLabel": "",
  "trafFeriale": 3,
  "trafWeekend": 5,
  "trucks": "rari",
  "snapped": false,
  "nodeId": 983587859
 },
 {
  "id": "osm-1673211662",
  "name": "Maurertörl",
  "lat": 47.0935154,
  "lon": 12.2873914,
  "elevation": 3104,
  "surfaceLabel": "",
  "trafFeriale": 3,
  "trafWeekend": 5,
  "trucks": "rari",
  "snapped": false,
  "nodeId": 1673211662
 },
 {
  "id": "osm-2670644837",
  "name": "Wütenkarsattel",
  "lat": 46.9913917,
  "lon": 11.070329,
  "elevation": 3103,
  "surfaceLabel": "",
  "trafFeriale": 3,
  "trafWeekend": 5,
  "trucks": "rari",
  "snapped": false,
  "nodeId": 2670644837
 },
 {
  "id": "osm-1852513663",
  "name": "Bocchetta dei Tre Signori",
  "lat": 46.3370851,
  "lon": 10.5140252,
  "elevation": 3102,
  "surfaceLabel": "",
  "trafFeriale": 3,
  "trafWeekend": 5,
  "trucks": "rari",
  "snapped": false,
  "nodeId": 1852513663
 },
 {
  "id": "osm-3008445741",
  "name": "Führerscharte",
  "lat": 47.1216306,
  "lon": 12.697106,
  "elevation": 3101,
  "surfaceLabel": "",
  "trafFeriale": 3,
  "trafWeekend": 5,
  "trucks": "rari",
  "snapped": false,
  "nodeId": 3008445741
 },
 {
  "id": "osm-917996074",
  "name": "Colle della Bettolina Superiore",
  "lat": 45.8881532,
  "lon": 7.7834456,
  "elevation": 3100,
  "surfaceLabel": "",
  "trafFeriale": 3,
  "trafWeekend": 5,
  "trucks": "rari",
  "snapped": false,
  "nodeId": 917996074
 },
 {
  "id": "osm-1270695833",
  "name": "Col des Barmes de l&#39;Ours",
  "lat": 45.3837656,
  "lon": 6.9303543,
  "elevation": 3100,
  "surfaceLabel": "",
  "trafFeriale": 3,
  "trafWeekend": 5,
  "trucks": "rari",
  "snapped": false,
  "nodeId": 1270695833
 },
 {
  "id": "osm-1834722215",
  "name": "Colletto Dante",
  "lat": 44.6485602,
  "lon": 7.1014973,
  "elevation": 3100,
  "surfaceLabel": "",
  "trafFeriale": 3,
  "trafWeekend": 5,
  "trucks": "rari",
  "snapped": false,
  "nodeId": 1834722215
 },
 {
  "id": "osm-1708023894",
  "name": "Passo",
  "lat": 46.4117111,
  "lon": 9.8277783,
  "elevation": 3099,
  "surfaceLabel": "",
  "trafFeriale": 3,
  "trafWeekend": 5,
  "trucks": "rari",
  "snapped": false,
  "nodeId": 1708023894
 },
 {
  "id": "osm-427679618",
  "name": "Bildstöckljoch - Forcella del Santo",
  "lat": 46.7603562,
  "lon": 10.7333061,
  "elevation": 3098,
  "surfaceLabel": "",
  "trafFeriale": 3,
  "trafWeekend": 5,
  "trucks": "rari",
  "snapped": false,
  "nodeId": 427679618
 },
 {
  "id": "osm-514556971",
  "name": "Valginjoch",
  "lat": 46.8509916,
  "lon": 10.6987352,
  "elevation": 3098,
  "surfaceLabel": "",
  "trafFeriale": 3,
  "trafWeekend": 5,
  "trucks": "rari",
  "snapped": false,
  "nodeId": 514556971
 },
 {
  "id": "osm-564377151",
  "name": "Passo Cassandra",
  "lat": 46.259976,
  "lon": 9.7694905,
  "elevation": 3097,
  "surfaceLabel": "",
  "trafFeriale": 3,
  "trafWeekend": 5,
  "trucks": "rari",
  "snapped": false,
  "nodeId": 564377151
 },
 {
  "id": "osm-738747389",
  "name": "Col de Rhêmes-Calabre / Col di Rhemes",
  "lat": 45.4740414,
  "lon": 7.0681893,
  "elevation": 3097,
  "surfaceLabel": "",
  "trafFeriale": 3,
  "trafWeekend": 5,
  "trucks": "rari",
  "snapped": false,
  "nodeId": 738747389
 },
 {
  "id": "osm-321178513",
  "name": "Rostizjoch",
  "lat": 46.9634564,
  "lon": 10.7934893,
  "elevation": 3093,
  "surfaceLabel": "",
  "trafFeriale": 3,
  "trafWeekend": 5,
  "trucks": "rari",
  "snapped": false,
  "nodeId": 321178513
 },
 {
  "id": "osm-3617207812",
  "name": "Col de l&#39;Agnel inférieur / Colle dell&#39;Agnello inferiore",
  "lat": 45.1495559,
  "lon": 6.8901533,
  "elevation": 3090,
  "surfaceLabel": "",
  "trafFeriale": 3,
  "trafWeekend": 5,
  "trucks": "rari",
  "snapped": false,
  "nodeId": 3617207812
 },
 {
  "id": "osm-1435689982",
  "name": "Colle Leynir",
  "lat": 45.5182249,
  "lon": 7.1401639,
  "elevation": 3087,
  "surfaceLabel": "",
  "trafFeriale": 3,
  "trafWeekend": 5,
  "trucks": "rari",
  "snapped": false,
  "nodeId": 1435689982
 },
 {
  "id": "osm-1368676944",
  "name": "Pas de Mongioia / Passo Mongioia",
  "lat": 44.6137228,
  "lon": 6.9500091,
  "elevation": 3086,
  "surfaceLabel": "",
  "trafFeriale": 3,
  "trafWeekend": 5,
  "trucks": "rari",
  "snapped": false,
  "nodeId": 1368676944
 },
 {
  "id": "osm-564378135",
  "name": "Furcela da Fedoz / Passo dell&#39;Oro",
  "lat": 46.3364818,
  "lon": 9.7680327,
  "elevation": 3084,
  "surfaceLabel": "",
  "trafFeriale": 3,
  "trafWeekend": 5,
  "trucks": "rari",
  "snapped": false,
  "nodeId": 564378135
 },
 {
  "id": "osm-512004609",
  "name": "Passo",
  "lat": 46.9759354,
  "lon": 10.9018701,
  "elevation": 3083,
  "surfaceLabel": "",
  "trafFeriale": 3,
  "trafWeekend": 5,
  "trucks": "rari",
  "snapped": false,
  "nodeId": 512004609
 },
 {
  "id": "osm-1384525217",
  "name": "Col Bassac Deré",
  "lat": 45.5045607,
  "lon": 7.0435279,
  "elevation": 3083,
  "surfaceLabel": "",
  "trafFeriale": 3,
  "trafWeekend": 5,
  "trucks": "rari",
  "snapped": false,
  "nodeId": 1384525217
 },
 {
  "id": "osm-333899942",
  "name": "Schlegeisscharte",
  "lat": 46.9707464,
  "lon": 11.7512173,
  "elevation": 3082,
  "surfaceLabel": "",
  "trafFeriale": 3,
  "trafWeekend": 5,
  "trucks": "rari",
  "snapped": false,
  "nodeId": 333899942
 },
 {
  "id": "osm-2783818126",
  "name": "Col di Tzaboc",
  "lat": 45.6210498,
  "lon": 7.106898,
  "elevation": 3082,
  "surfaceLabel": "",
  "trafFeriale": 3,
  "trafWeekend": 5,
  "trucks": "rari",
  "snapped": false,
  "nodeId": 2783818126
 },
 {
  "id": "osm-921648210",
  "name": "Jazzilücke/Passo di Cingino",
  "lat": 46.0294566,
  "lon": 8.0146354,
  "elevation": 3081,
  "surfaceLabel": "",
  "trafFeriale": 3,
  "trafWeekend": 5,
  "trucks": "rari",
  "snapped": false,
  "nodeId": 921648210
 },
 {
  "id": "osm-3202766314",
  "name": "Col des Grands",
  "lat": 45.9997577,
  "lon": 6.9964001,
  "elevation": 3080,
  "surfaceLabel": "",
  "trafFeriale": 3,
  "trafWeekend": 5,
  "trucks": "rari",
  "snapped": false,
  "nodeId": 3202766314
 },
 {
  "id": "osm-5636202369",
  "name": "Triev",
  "lat": 45.3842,
  "lon": 7.1525,
  "elevation": 3080,
  "surfaceLabel": "",
  "trafFeriale": 3,
  "trafWeekend": 5,
  "trucks": "rari",
  "snapped": false,
  "nodeId": 5636202369
 },
 {
  "id": "osm-1393988019",
  "name": "Colle de Valcournera",
  "lat": 45.9019853,
  "lon": 7.5599336,
  "elevation": 3075,
  "surfaceLabel": "",
  "trafFeriale": 3,
  "trafWeekend": 5,
  "trucks": "rari",
  "snapped": false,
  "nodeId": 1393988019
 },
 {
  "id": "osm-1896740624",
  "name": "Col Collon",
  "lat": 45.9609008,
  "lon": 7.5133942,
  "elevation": 3074,
  "surfaceLabel": "",
  "trafFeriale": 3,
  "trafWeekend": 5,
  "trucks": "rari",
  "snapped": false,
  "nodeId": 1896740624
 },
 {
  "id": "osm-1445603777",
  "name": "Colle Sule",
  "lat": 45.2351913,
  "lon": 7.136642,
  "elevation": 3072,
  "surfaceLabel": "",
  "trafFeriale": 3,
  "trafWeekend": 5,
  "trucks": "rari",
  "snapped": false,
  "nodeId": 1445603777
 },
 {
  "id": "osm-3775304157",
  "name": "Col de l&#39;Autaret / Colle dell&#39;Autaret",
  "lat": 45.2404183,
  "lon": 7.1067946,
  "elevation": 3072,
  "surfaceLabel": "",
  "trafFeriale": 3,
  "trafWeekend": 5,
  "trucks": "rari",
  "snapped": false,
  "nodeId": 3775304157
 },
 {
  "id": "osm-5909780863",
  "name": "Passo",
  "lat": 44.691888,
  "lon": 6.9958081,
  "elevation": 3072,
  "surfaceLabel": "",
  "trafFeriale": 3,
  "trafWeekend": 5,
  "trucks": "rari",
  "snapped": false,
  "nodeId": 5909780863
 },
 {
  "id": "osm-565219362",
  "name": "Passo del Canalone Ghiacciato",
  "lat": 46.177761,
  "lon": 10.4428798,
  "elevation": 3070,
  "surfaceLabel": "",
  "trafFeriale": 3,
  "trafWeekend": 5,
  "trucks": "rari",
  "snapped": false,
  "nodeId": 565219362
 },
 {
  "id": "osm-2025282282",
  "name": "Col de la Cula",
  "lat": 44.6556427,
  "lon": 6.9079162,
  "elevation": 3070,
  "surfaceLabel": "",
  "trafFeriale": 3,
  "trafWeekend": 5,
  "trucks": "rari",
  "snapped": false,
  "nodeId": 2025282282
 },
 {
  "id": "osm-514646015",
  "name": "Passo",
  "lat": 46.8398354,
  "lon": 11.064319,
  "elevation": 3067,
  "surfaceLabel": "",
  "trafFeriale": 3,
  "trafWeekend": 5,
  "trucks": "rari",
  "snapped": false,
  "nodeId": 514646015
 },
 {
  "id": "osm-333900338",
  "name": "Schwarzenbachjoch - Giogo di Rio Nero",
  "lat": 47.0020208,
  "lon": 11.8540121,
  "elevation": 3062,
  "surfaceLabel": "",
  "trafFeriale": 3,
  "trafWeekend": 5,
  "trucks": "rari",
  "snapped": false,
  "nodeId": 333900338
 },
 {
  "id": "osm-513607903",
  "name": "Passo",
  "lat": 47.0262856,
  "lon": 10.8213423,
  "elevation": 3060,
  "surfaceLabel": "",
  "trafFeriale": 3,
  "trafWeekend": 5,
  "trucks": "rari",
  "snapped": false,
  "nodeId": 513607903
 },
 {
  "id": "osm-3046887350",
  "name": "Col de Rubren / Colle Giuep",
  "lat": 44.6084989,
  "lon": 6.9489416,
  "elevation": 3060,
  "surfaceLabel": "",
  "trafFeriale": 3,
  "trafWeekend": 5,
  "trucks": "rari",
  "snapped": false,
  "nodeId": 3046887350
 },
 {
  "id": "osm-823305715",
  "name": "Schwarzwandscharte",
  "lat": 46.9441992,
  "lon": 11.1740229,
  "elevation": 3058,
  "surfaceLabel": "",
  "trafFeriale": 3,
  "trafWeekend": 5,
  "trucks": "rari",
  "snapped": false,
  "nodeId": 823305715
 },
 {
  "id": "osm-2682087555",
  "name": "Col des Paresseux",
  "lat": 46.157695,
  "lon": 6.9232344,
  "elevation": 3056,
  "surfaceLabel": "",
  "trafFeriale": 3,
  "trafWeekend": 5,
  "trucks": "rari",
  "snapped": false,
  "nodeId": 2682087555
 },
 {
  "id": "osm-321568687",
  "name": "Fernaujoch",
  "lat": 46.9722043,
  "lon": 11.125797,
  "elevation": 3055,
  "surfaceLabel": "",
  "trafFeriale": 3,
  "trafWeekend": 5,
  "trucks": "rari",
  "snapped": false,
  "nodeId": 321568687
 },
 {
  "id": "osm-2795890977",
  "name": "Stangenjoch",
  "lat": 47.0535384,
  "lon": 11.9802781,
  "elevation": 3055,
  "surfaceLabel": "",
  "trafFeriale": 3,
  "trafWeekend": 5,
  "trucks": "rari",
  "snapped": false,
  "nodeId": 2795890977
 },
 {
  "id": "osm-514738602",
  "name": "Rotmoosjoch - Boccha di Plan",
  "lat": 46.8082004,
  "lon": 11.0549489,
  "elevation": 3054,
  "surfaceLabel": "",
  "trafFeriale": 3,
  "trafWeekend": 5,
  "trucks": "rari",
  "snapped": false,
  "nodeId": 514738602
 },
 {
  "id": "osm-1380952626",
  "name": "Colle del Lupo",
  "lat": 44.6265833,
  "lon": 6.9722293,
  "elevation": 3052,
  "surfaceLabel": "",
  "trafFeriale": 3,
  "trafWeekend": 5,
  "trucks": "rari",
  "snapped": false,
  "nodeId": 1380952626
 },
 {
  "id": "osm-2670644777",
  "name": "Gaislehnscharte",
  "lat": 47.0664537,
  "lon": 11.0792904,
  "elevation": 3052,
  "surfaceLabel": "",
  "trafFeriale": 3,
  "trafWeekend": 5,
  "trucks": "rari",
  "snapped": false,
  "nodeId": 2670644777
 },
 {
  "id": "osm-328349713",
  "name": "Passo",
  "lat": 46.9369686,
  "lon": 10.6811488,
  "elevation": 3050,
  "surfaceLabel": "",
  "trafFeriale": 3,
  "trafWeekend": 5,
  "trucks": "rari",
  "snapped": false,
  "nodeId": 328349713
 },
 {
  "id": "osm-565219523",
  "name": "Passo Prudenzini",
  "lat": 46.1501045,
  "lon": 10.4790469,
  "elevation": 3050,
  "surfaceLabel": "",
  "trafFeriale": 3,
  "trafWeekend": 5,
  "trucks": "rari",
  "snapped": false,
  "nodeId": 565219523
 },
 {
  "id": "osm-5152599081",
  "name": "Pipjilicke",
  "lat": 46.1683223,
  "lon": 7.7303141,
  "elevation": 3050,
  "surfaceLabel": "",
  "trafFeriale": 3,
  "trafWeekend": 5,
  "trucks": "rari",
  "snapped": false,
  "nodeId": 5152599081
 },
 {
  "id": "osm-5636202367",
  "name": "Col de Charmotane",
  "lat": 45.9787694,
  "lon": 7.4744167,
  "elevation": 3049,
  "surfaceLabel": "",
  "trafFeriale": 3,
  "trafWeekend": 5,
  "trucks": "rari",
  "snapped": false,
  "nodeId": 5636202367
 },
 {
  "id": "osm-1673207008",
  "name": "Reggentörl",
  "lat": 47.0532487,
  "lon": 12.2582375,
  "elevation": 3047,
  "surfaceLabel": "",
  "trafFeriale": 3,
  "trafWeekend": 5,
  "trucks": "rari",
  "snapped": false,
  "nodeId": 1673207008
 },
 {
  "id": "osm-513721504",
  "name": "Ölgrubenjoch",
  "lat": 46.896106,
  "lon": 10.7771659,
  "elevation": 3044,
  "surfaceLabel": "",
  "trafFeriale": 3,
  "trafWeekend": 5,
  "trucks": "rari",
  "snapped": false,
  "nodeId": 513721504
 },
 {
  "id": "osm-1942450997",
  "name": "Col du Lou",
  "lat": 45.2614288,
  "lon": 6.9450112,
  "elevation": 3042,
  "surfaceLabel": "",
  "trafFeriale": 3,
  "trafWeekend": 5,
  "trucks": "rari",
  "snapped": false,
  "nodeId": 1942450997
 },
 {
  "id": "osm-564938409",
  "name": "Passo dei Volontari",
  "lat": 46.4883583,
  "lon": 10.5248388,
  "elevation": 3040,
  "surfaceLabel": "",
  "trafFeriale": 3,
  "trafWeekend": 5,
  "trucks": "rari",
  "snapped": false,
  "nodeId": 564938409
 },
 {
  "id": "osm-1834721701",
  "name": "Passo Fiorio e Ratti",
  "lat": 44.6473216,
  "lon": 7.1024722,
  "elevation": 3040,
  "surfaceLabel": "",
  "trafFeriale": 3,
  "trafWeekend": 5,
  "trucks": "rari",
  "snapped": false,
  "nodeId": 1834721701
 },
 {
  "id": "osm-565219511",
  "name": "Bocchetta di Plem",
  "lat": 46.1492482,
  "lon": 10.4606325,
  "elevation": 3038,
  "surfaceLabel": "",
  "trafFeriale": 3,
  "trafWeekend": 5,
  "trucks": "rari",
  "snapped": false,
  "nodeId": 565219511
 },
 {
  "id": "osm-1975267404",
  "name": "Stellipass",
  "lat": 46.0452542,
  "lon": 7.991321,
  "elevation": 3038,
  "surfaceLabel": "",
  "trafFeriale": 3,
  "trafWeekend": 5,
  "trucks": "rari",
  "snapped": false,
  "nodeId": 1975267404
 },
 {
  "id": "osm-513630844",
  "name": "Aperes Madatschjoch",
  "lat": 46.9966348,
  "lon": 10.7968287,
  "elevation": 3037,
  "surfaceLabel": "",
  "trafFeriale": 3,
  "trafWeekend": 5,
  "trucks": "rari",
  "snapped": false,
  "nodeId": 513630844
 },
 {
  "id": "osm-2516162261",
  "name": "Col des Rachasses",
  "lat": 45.9501431,
  "lon": 6.961269,
  "elevation": 3037,
  "surfaceLabel": "",
  "trafFeriale": 3,
  "trafWeekend": 5,
  "trucks": "rari",
  "snapped": false,
  "nodeId": 2516162261
 },
 {
  "id": "osm-514746942",
  "name": "Langtalerjoch",
  "lat": 46.7783111,
  "lon": 11.0285878,
  "elevation": 3035,
  "surfaceLabel": "",
  "trafFeriale": 3,
  "trafWeekend": 5,
  "trucks": "rari",
  "snapped": false,
  "nodeId": 514746942
 },
 {
  "id": "osm-828127006",
  "name": "Col des Laures",
  "lat": 45.6624739,
  "lon": 7.3943758,
  "elevation": 3035,
  "surfaceLabel": "",
  "trafFeriale": 3,
  "trafWeekend": 5,
  "trucks": "rari",
  "snapped": false,
  "nodeId": 828127006
 },
 {
  "id": "osm-321175757",
  "name": "Passo",
  "lat": 47.0215116,
  "lon": 10.9166432,
  "elevation": 3034,
  "surfaceLabel": "",
  "trafFeriale": 3,
  "trafWeekend": 5,
  "trucks": "rari",
  "snapped": false,
  "nodeId": 321175757
 },
 {
  "id": "osm-514117743",
  "name": "Passo",
  "lat": 46.9019979,
  "lon": 10.6903698,
  "elevation": 3034,
  "surfaceLabel": "",
  "trafFeriale": 3,
  "trafWeekend": 5,
  "trucks": "rari",
  "snapped": false,
  "nodeId": 514117743
 },
 {
  "id": "osm-459849783",
  "name": "Col d&#39;Orchèra",
  "lat": 46.1132512,
  "lon": 7.3575518,
  "elevation": 3033,
  "surfaceLabel": "",
  "trafFeriale": 3,
  "trafWeekend": 5,
  "trucks": "rari",
  "snapped": false,
  "nodeId": 459849783
 },
 {
  "id": "osm-514333487",
  "name": "Urkundsattel",
  "lat": 46.8922115,
  "lon": 10.8113485,
  "elevation": 3033,
  "surfaceLabel": "",
  "trafFeriale": 3,
  "trafWeekend": 5,
  "trucks": "rari",
  "snapped": false,
  "nodeId": 514333487
 },
 {
  "id": "osm-452398469",
  "name": "La Forcola - Fürkelescharte",
  "lat": 46.4492425,
  "lon": 10.6519884,
  "elevation": 3032,
  "surfaceLabel": "",
  "trafFeriale": 3,
  "trafWeekend": 5,
  "trucks": "rari",
  "snapped": false,
  "nodeId": 452398469
 },
 {
  "id": "osm-459849855",
  "name": "Col de la Cime de l&#39;Est",
  "lat": 46.1713901,
  "lon": 6.9419484,
  "elevation": 3030,
  "surfaceLabel": "",
  "trafFeriale": 3,
  "trafWeekend": 5,
  "trucks": "rari",
  "snapped": false,
  "nodeId": 459849855
 },
 {
  "id": "osm-475984374",
  "name": "Col de Lâne",
  "lat": 45.9908176,
  "lon": 7.2466958,
  "elevation": 3030,
  "surfaceLabel": "",
  "trafFeriale": 3,
  "trafWeekend": 5,
  "trucks": "rari",
  "snapped": false,
  "nodeId": 475984374
 },
 {
  "id": "osm-564379616",
  "name": "Passo Marinelli Orientale",
  "lat": 46.3481607,
  "lon": 9.9196042,
  "elevation": 3030,
  "surfaceLabel": "",
  "trafFeriale": 3,
  "trafWeekend": 5,
  "trucks": "rari",
  "snapped": false,
  "nodeId": 564379616
 },
 {
  "id": "osm-1725337154",
  "name": "Col des Planereuses",
  "lat": 45.9658694,
  "lon": 7.0653298,
  "elevation": 3030,
  "surfaceLabel": "",
  "trafFeriale": 3,
  "trafWeekend": 5,
  "trucks": "rari",
  "snapped": false,
  "nodeId": 1725337154
 },
 {
  "id": "osm-8899266491",
  "name": "Nevessattel",
  "lat": 46.9747335,
  "lon": 11.765981,
  "elevation": 3029,
  "surfaceLabel": "",
  "trafFeriale": 3,
  "trafWeekend": 5,
  "trucks": "rari",
  "snapped": false,
  "nodeId": 8899266491
 },
 {
  "id": "osm-333900425",
  "name": "Tribbachsattel",
  "lat": 47.0161538,
  "lon": 11.8875913,
  "elevation": 3028,
  "surfaceLabel": "",
  "trafFeriale": 3,
  "trafWeekend": 5,
  "trucks": "rari",
  "snapped": false,
  "nodeId": 333900425
 },
 {
  "id": "osm-333900480",
  "name": "Floitenjoch",
  "lat": 47.0251154,
  "lon": 11.9044738,
  "elevation": 3027,
  "surfaceLabel": "",
  "trafFeriale": 3,
  "trafWeekend": 5,
  "trucks": "rari",
  "snapped": false,
  "nodeId": 333900480
 },
 {
  "id": "osm-1465234405",
  "name": "Sella Becca Salé",
  "lat": 45.685362,
  "lon": 7.42135,
  "elevation": 3025,
  "surfaceLabel": "",
  "trafFeriale": 3,
  "trafWeekend": 5,
  "trucks": "rari",
  "snapped": false,
  "nodeId": 1465234405
 },
 {
  "id": "osm-1835007882",
  "name": "Freiger Scharte",
  "lat": 46.9642236,
  "lon": 11.2048212,
  "elevation": 3024,
  "surfaceLabel": "",
  "trafFeriale": 3,
  "trafWeekend": 5,
  "trucks": "rari",
  "snapped": false,
  "nodeId": 1835007882
 },
 {
  "id": "osm-1854443224",
  "name": "Gaißjoch",
  "lat": 46.9574648,
  "lon": 11.1298716,
  "elevation": 3024,
  "surfaceLabel": "",
  "trafFeriale": 3,
  "trafWeekend": 5,
  "trucks": "rari",
  "snapped": false,
  "nodeId": 1854443224
 },
 {
  "id": "osm-349264868",
  "name": "Col de Rosoire",
  "lat": 45.2939992,
  "lon": 6.7084723,
  "elevation": 3023,
  "surfaceLabel": "",
  "trafFeriale": 3,
  "trafWeekend": 5,
  "trucks": "rari",
  "snapped": false,
  "nodeId": 349264868
 },
 {
  "id": "osm-3350228941",
  "name": "Col Rosset",
  "lat": 45.5106567,
  "lon": 7.1256778,
  "elevation": 3023,
  "surfaceLabel": "",
  "trafFeriale": 3,
  "trafWeekend": 5,
  "trucks": "rari",
  "snapped": false,
  "nodeId": 3350228941
 },
 {
  "id": "osm-5769792441",
  "name": "Passo",
  "lat": 46.3518975,
  "lon": 10.5190926,
  "elevation": 3021,
  "surfaceLabel": "",
  "trafFeriale": 3,
  "trafWeekend": 5,
  "trucks": "rari",
  "snapped": false,
  "nodeId": 5769792441
 },
 {
  "id": "osm-321178635",
  "name": "Schneeiges Madatschjoch",
  "lat": 46.9939408,
  "lon": 10.7953943,
  "elevation": 3020,
  "surfaceLabel": "",
  "trafFeriale": 3,
  "trafWeekend": 5,
  "trucks": "rari",
  "snapped": false,
  "nodeId": 321178635
 },
 {
  "id": "osm-3202776442",
  "name": "Col du Passon",
  "lat": 45.9762205,
  "lon": 6.9834825,
  "elevation": 3020,
  "surfaceLabel": "",
  "trafFeriale": 3,
  "trafWeekend": 5,
  "trucks": "rari",
  "snapped": false,
  "nodeId": 3202776442
 },
 {
  "id": "osm-480305011",
  "name": "Fuorcla Trovat",
  "lat": 46.4033148,
  "lon": 9.973368,
  "elevation": 3019,
  "surfaceLabel": "",
  "trafFeriale": 3,
  "trafWeekend": 5,
  "trucks": "rari",
  "snapped": false,
  "nodeId": 480305011
 },
 {
  "id": "osm-1468116482",
  "name": "Passo Luisàs",
  "lat": 44.7170127,
  "lon": 7.0702167,
  "elevation": 3019,
  "surfaceLabel": "",
  "trafFeriale": 3,
  "trafWeekend": 5,
  "trucks": "rari",
  "snapped": false,
  "nodeId": 1468116482
 },
 {
  "id": "osm-328349817",
  "name": "Passo",
  "lat": 46.9468472,
  "lon": 10.6875395,
  "elevation": 3017,
  "surfaceLabel": "",
  "trafFeriale": 3,
  "trafWeekend": 5,
  "trucks": "rari",
  "snapped": false,
  "nodeId": 328349817
 },
 {
  "id": "osm-513607905",
  "name": "Passo",
  "lat": 47.0235423,
  "lon": 10.817971,
  "elevation": 3017,
  "surfaceLabel": "",
  "trafFeriale": 3,
  "trafWeekend": 5,
  "trucks": "rari",
  "snapped": false,
  "nodeId": 513607905
 },
 {
  "id": "osm-564938405",
  "name": "Passo del Cristallo",
  "lat": 46.4918049,
  "lon": 10.4381199,
  "elevation": 3016,
  "surfaceLabel": "",
  "trafFeriale": 3,
  "trafWeekend": 5,
  "trucks": "rari",
  "snapped": false,
  "nodeId": 564938405
 },
 {
  "id": "osm-316288690",
  "name": "Col de Momin",
  "lat": 46.0681236,
  "lon": 7.3349981,
  "elevation": 3015,
  "surfaceLabel": "",
  "trafFeriale": 3,
  "trafWeekend": 5,
  "trucks": "rari",
  "snapped": false,
  "nodeId": 316288690
 },
 {
  "id": "osm-427718080",
  "name": "Matscher Scharte",
  "lat": 46.7167754,
  "lon": 10.7225976,
  "elevation": 3014,
  "surfaceLabel": "",
  "trafFeriale": 3,
  "trafWeekend": 5,
  "trucks": "rari",
  "snapped": false,
  "nodeId": 427718080
 },
 {
  "id": "osm-564379261",
  "name": "Passo Marinelli Occidentale",
  "lat": 46.3506478,
  "lon": 9.9128171,
  "elevation": 3014,
  "surfaceLabel": "",
  "trafFeriale": 3,
  "trafWeekend": 5,
  "trucks": "rari",
  "snapped": false,
  "nodeId": 564379261
 },
 {
  "id": "osm-2950843327",
  "name": "Passo della Lobbia Alta",
  "lat": 46.1672944,
  "lon": 10.5662045,
  "elevation": 3013,
  "surfaceLabel": "",
  "trafFeriale": 3,
  "trafWeekend": 5,
  "trucks": "rari",
  "snapped": false,
  "nodeId": 2950843327
 },
 {
  "id": "osm-301752063",
  "name": "Niederjoch - Giogo Basso",
  "lat": 46.7725469,
  "lon": 10.8549265,
  "elevation": 3012,
  "surfaceLabel": "",
  "trafFeriale": 3,
  "trafWeekend": 5,
  "trucks": "rari",
  "snapped": false,
  "nodeId": 301752063
 },
 {
  "id": "osm-564378006",
  "name": "Pass dal Tremoggia/Passo delle Tre Mogge",
  "lat": 46.3487134,
  "lon": 9.811231,
  "elevation": 3012,
  "surfaceLabel": "",
  "trafFeriale": 3,
  "trafWeekend": 5,
  "trucks": "rari",
  "snapped": false,
  "nodeId": 564378006
 },
 {
  "id": "osm-564938396",
  "name": "Passo dell&#39;Ables",
  "lat": 46.4914186,
  "lon": 10.433997,
  "elevation": 3012,
  "surfaceLabel": "",
  "trafFeriale": 3,
  "trafWeekend": 5,
  "trucks": "rari",
  "snapped": false,
  "nodeId": 564938396
 },
 {
  "id": "osm-565219624",
  "name": "Passo Tre Denti",
  "lat": 46.1964207,
  "lon": 10.5480617,
  "elevation": 3012,
  "surfaceLabel": "",
  "trafFeriale": 3,
  "trafWeekend": 5,
  "trucks": "rari",
  "snapped": false,
  "nodeId": 565219624
 },
 {
  "id": "osm-892504253",
  "name": "Colle della Forchetta",
  "lat": 44.1650066,
  "lon": 7.3080914,
  "elevation": 3011,
  "surfaceLabel": "",
  "trafFeriale": 3,
  "trafWeekend": 5,
  "trucks": "rari",
  "snapped": false,
  "nodeId": 892504253
 },
 {
  "id": "osm-2992126167",
  "name": "Mutterberger Joch",
  "lat": 47.0173328,
  "lon": 11.0985184,
  "elevation": 3011,
  "surfaceLabel": "",
  "trafFeriale": 3,
  "trafWeekend": 5,
  "trucks": "rari",
  "snapped": false,
  "nodeId": 2992126167
 },
 {
  "id": "osm-473485986",
  "name": "Fenêtre de Soi",
  "lat": 46.1685365,
  "lon": 6.9349567,
  "elevation": 3009,
  "surfaceLabel": "",
  "trafFeriale": 3,
  "trafWeekend": 5,
  "trucks": "rari",
  "snapped": false,
  "nodeId": 473485986
 },
 {
  "id": "osm-801342016",
  "name": "Col Pers",
  "lat": 45.4298588,
  "lon": 7.0514166,
  "elevation": 3009,
  "surfaceLabel": "",
  "trafFeriale": 3,
  "trafWeekend": 5,
  "trucks": "rari",
  "snapped": false,
  "nodeId": 801342016
 },
 {
  "id": "osm-1891077416",
  "name": "Colletto della Rognosa",
  "lat": 44.9322428,
  "lon": 6.9245612,
  "elevation": 3009,
  "surfaceLabel": "",
  "trafFeriale": 3,
  "trafWeekend": 5,
  "trucks": "rari",
  "snapped": false,
  "nodeId": 1891077416
 },
 {
  "id": "osm-3751336934",
  "name": "Col de Sommeiller / Colle del Sommeiller",
  "lat": 45.1332149,
  "lon": 6.8458497,
  "elevation": 3009,
  "surfaceLabel": "",
  "trafFeriale": 3,
  "trafWeekend": 5,
  "trucks": "rari",
  "snapped": false,
  "nodeId": 3751336934
 },
 {
  "id": "osm-480305084",
  "name": "Passo",
  "lat": 46.4083598,
  "lon": 9.9721468,
  "elevation": 3008,
  "surfaceLabel": "",
  "trafFeriale": 3,
  "trafWeekend": 5,
  "trucks": "rari",
  "snapped": false,
  "nodeId": 480305084
 },
 {
  "id": "osm-1835016965",
  "name": "Rotgratscharte - Forcella della Cresta Rossa",
  "lat": 46.9639127,
  "lon": 11.2094126,
  "elevation": 3007,
  "surfaceLabel": "",
  "trafFeriale": 3,
  "trafWeekend": 5,
  "trucks": "rari",
  "snapped": false,
  "nodeId": 1835016965
 },
 {
  "id": "osm-1844554547",
  "name": "Colle della Ramière",
  "lat": 44.8671167,
  "lon": 6.9227414,
  "elevation": 3007,
  "surfaceLabel": "",
  "trafFeriale": 3,
  "trafWeekend": 5,
  "trucks": "rari",
  "snapped": false,
  "nodeId": 1844554547
 },
 {
  "id": "osm-1888744774",
  "name": "Passo della Sforzellina",
  "lat": 46.3507234,
  "lon": 10.5187679,
  "elevation": 3006,
  "surfaceLabel": "",
  "trafFeriale": 3,
  "trafWeekend": 5,
  "trucks": "rari",
  "snapped": false,
  "nodeId": 1888744774
 },
 {
  "id": "osm-440838425",
  "name": "Passo Zebrù",
  "lat": 46.456971,
  "lon": 10.5611179,
  "elevation": 3005,
  "surfaceLabel": "",
  "trafFeriale": 3,
  "trafWeekend": 5,
  "trucks": "rari",
  "snapped": false,
  "nodeId": 440838425
 },
 {
  "id": "osm-514120785",
  "name": "Glockturmjoch",
  "lat": 46.8781122,
  "lon": 10.6664857,
  "elevation": 3005,
  "surfaceLabel": "",
  "trafFeriale": 3,
  "trafWeekend": 5,
  "trucks": "rari",
  "snapped": false,
  "nodeId": 514120785
 },
 {
  "id": "osm-473485984",
  "name": "Col de la Dent Jaune",
  "lat": 46.1646186,
  "lon": 6.9286751,
  "elevation": 3004,
  "surfaceLabel": "",
  "trafFeriale": 3,
  "trafWeekend": 5,
  "trucks": "rari",
  "snapped": false,
  "nodeId": 473485984
 },
 {
  "id": "osm-1684307925",
  "name": "Colletto Nord Della Testa Grigia",
  "lat": 45.8360799,
  "lon": 7.7837755,
  "elevation": 3004,
  "surfaceLabel": "",
  "trafFeriale": 3,
  "trafWeekend": 5,
  "trucks": "rari",
  "snapped": false,
  "nodeId": 1684307925
 },
 {
  "id": "osm-2823357293",
  "name": "Passo Cèrcen",
  "lat": 46.2200347,
  "lon": 10.6389396,
  "elevation": 3004,
  "surfaceLabel": "",
  "trafFeriale": 3,
  "trafWeekend": 5,
  "trucks": "rari",
  "snapped": false,
  "nodeId": 2823357293
 },
 {
  "id": "osm-7835741968",
  "name": "Col des Arpettes",
  "lat": 46.1572911,
  "lon": 7.6707937,
  "elevation": 3004,
  "surfaceLabel": "",
  "trafFeriale": 3,
  "trafWeekend": 5,
  "trucks": "rari",
  "snapped": false,
  "nodeId": 7835741968
 },
 {
  "id": "osm-1821949455",
  "name": "Col Entrelor",
  "lat": 45.5476168,
  "lon": 7.157221,
  "elevation": 3002,
  "surfaceLabel": "",
  "trafFeriale": 3,
  "trafWeekend": 5,
  "trucks": "rari",
  "snapped": false,
  "nodeId": 1821949455
 },
 {
  "id": "osm-3770673918",
  "name": "Col de La Tza",
  "lat": 45.8996265,
  "lon": 7.4213266,
  "elevation": 3002,
  "surfaceLabel": "",
  "trafFeriale": 3,
  "trafWeekend": 5,
  "trucks": "rari",
  "snapped": false,
  "nodeId": 3770673918
 },
 {
  "id": "osm-827556085",
  "name": "Colle della Porta",
  "lat": 45.4686883,
  "lon": 7.2246588,
  "elevation": 3001,
  "surfaceLabel": "",
  "trafFeriale": 3,
  "trafWeekend": 5,
  "trucks": "rari",
  "snapped": false,
  "nodeId": 827556085
 },
 {
  "id": "osm-1813728260",
  "name": "Passo di Planaval",
  "lat": 45.6591061,
  "lon": 7.0190514,
  "elevation": 3001,
  "surfaceLabel": "",
  "trafFeriale": 3,
  "trafWeekend": 5,
  "trucks": "rari",
  "snapped": false,
  "nodeId": 1813728260
 },
 {
  "id": "osm-2783818127",
  "name": "Colle di Feluma",
  "lat": 45.6101339,
  "lon": 7.1022928,
  "elevation": 3001,
  "surfaceLabel": "",
  "trafFeriale": 3,
  "trafWeekend": 5,
  "trucks": "rari",
  "snapped": false,
  "nodeId": 2783818127
 },
 {
  "id": "osm-564938347",
  "name": "Passo La Stretta",
  "lat": 46.4748011,
  "lon": 10.0477056,
  "elevation": 3000,
  "surfaceLabel": "",
  "trafFeriale": 3,
  "trafWeekend": 5,
  "trucks": "rari",
  "snapped": false,
  "nodeId": 564938347
 },
 {
  "id": "osm-2025287553",
  "name": "Col Nord du Cristillan",
  "lat": 44.6495618,
  "lon": 6.9035983,
  "elevation": 3000,
  "surfaceLabel": "",
  "trafFeriale": 3,
  "trafWeekend": 5,
  "trucks": "rari",
  "snapped": false,
  "nodeId": 2025287553
 },
 {
  "id": "osm-2472080398",
  "name": "Bocchetta di Caspoggio",
  "lat": 46.3361795,
  "lon": 9.9209211,
  "elevation": 3000,
  "surfaceLabel": "",
  "trafFeriale": 3,
  "trafWeekend": 5,
  "trucks": "rari",
  "snapped": false,
  "nodeId": 2472080398
 },
 {
  "id": "osm-328349648",
  "name": "Plattigjöchl",
  "lat": 46.930117,
  "lon": 10.675387,
  "elevation": 2999,
  "surfaceLabel": "",
  "trafFeriale": 3,
  "trafWeekend": 5,
  "trucks": "rari",
  "snapped": false,
  "nodeId": 328349648
 },
 {
  "id": "osm-333900251",
  "name": "Innerjoch - Giogo di Dentro",
  "lat": 46.9926215,
  "lon": 11.8262216,
  "elevation": 2999,
  "surfaceLabel": "",
  "trafFeriale": 3,
  "trafWeekend": 5,
  "trucks": "rari",
  "snapped": false,
  "nodeId": 333900251
 },
 {
  "id": "osm-517706626",
  "name": "Colle Val Nera",
  "lat": 46.4307352,
  "lon": 10.1283209,
  "elevation": 2998,
  "surfaceLabel": "",
  "trafFeriale": 3,
  "trafWeekend": 5,
  "trucks": "rari",
  "snapped": false,
  "nodeId": 517706626
 },
 {
  "id": "osm-512004615",
  "name": "Pitztaler Jöchl",
  "lat": 46.9407679,
  "lon": 10.919692,
  "elevation": 2996,
  "surfaceLabel": "",
  "trafFeriale": 3,
  "trafWeekend": 5,
  "trucks": "rari",
  "snapped": false,
  "nodeId": 512004615
 },
 {
  "id": "osm-3060885652",
  "name": "Sforcela de Vernel",
  "lat": 46.4408,
  "lon": 11.834,
  "elevation": 2996,
  "surfaceLabel": "",
  "trafFeriale": 3,
  "trafWeekend": 5,
  "trucks": "rari",
  "snapped": false,
  "nodeId": 3060885652
 },
 {
  "id": "osm-2447430533",
  "name": "Passo",
  "lat": 46.9439872,
  "lon": 10.919441,
  "elevation": 2995,
  "surfaceLabel": "",
  "trafFeriale": 3,
  "trafWeekend": 5,
  "trucks": "rari",
  "snapped": false,
  "nodeId": 2447430533
 },
 {
  "id": "osm-328349586",
  "name": "Passo",
  "lat": 46.9235783,
  "lon": 10.6667733,
  "elevation": 2994,
  "surfaceLabel": "",
  "trafFeriale": 3,
  "trafWeekend": 5,
  "trucks": "rari",
  "snapped": false,
  "nodeId": 328349586
 },
 {
  "id": "osm-564377009",
  "name": "Passo di Mello",
  "lat": 46.2772947,
  "lon": 9.7315719,
  "elevation": 2994,
  "surfaceLabel": "",
  "trafFeriale": 3,
  "trafWeekend": 5,
  "trucks": "rari",
  "snapped": false,
  "nodeId": 564377009
 },
 {
  "id": "osm-565086609",
  "name": "Passo Dosegù",
  "lat": 46.3543816,
  "lon": 10.5389872,
  "elevation": 2992,
  "surfaceLabel": "",
  "trafFeriale": 3,
  "trafWeekend": 5,
  "trucks": "rari",
  "snapped": false,
  "nodeId": 565086609
 },
 {
  "id": "osm-5152599329",
  "name": "Wyssegglicke",
  "lat": 46.2014323,
  "lon": 7.7524598,
  "elevation": 2992,
  "surfaceLabel": "",
  "trafFeriale": 3,
  "trafWeekend": 5,
  "trucks": "rari",
  "snapped": false,
  "nodeId": 5152599329
 },
 {
  "id": "osm-909465369",
  "name": "Passo delle Sagnette",
  "lat": 44.6554426,
  "lon": 7.0999157,
  "elevation": 2990,
  "surfaceLabel": "",
  "trafFeriale": 3,
  "trafWeekend": 5,
  "trucks": "rari",
  "snapped": false,
  "nodeId": 909465369
 },
 {
  "id": "osm-1448414290",
  "name": "Passo Vitale Giacoletti",
  "lat": 44.6847844,
  "lon": 7.0756025,
  "elevation": 2990,
  "surfaceLabel": "",
  "trafFeriale": 3,
  "trafWeekend": 5,
  "trucks": "rari",
  "snapped": false,
  "nodeId": 1448414290
 },
 {
  "id": "osm-2972730609",
  "name": "Passo Presena",
  "lat": 46.2199851,
  "lon": 10.5848343,
  "elevation": 2990,
  "surfaceLabel": "",
  "trafFeriale": 3,
  "trafWeekend": 5,
  "trucks": "rari",
  "snapped": false,
  "nodeId": 2972730609
 },
 {
  "id": "osm-3075891289",
  "name": "Egginerjoch",
  "lat": 46.06823,
  "lon": 7.9257827,
  "elevation": 2990,
  "surfaceLabel": "",
  "trafFeriale": 3,
  "trafWeekend": 5,
  "trucks": "rari",
  "snapped": false,
  "nodeId": 3075891289
 },
 {
  "id": "osm-3248341108",
  "name": "Colle dei Becchi",
  "lat": 45.4959463,
  "lon": 7.3308838,
  "elevation": 2990,
  "surfaceLabel": "",
  "trafFeriale": 3,
  "trafWeekend": 5,
  "trucks": "rari",
  "snapped": false,
  "nodeId": 3248341108
 },
 {
  "id": "osm-5152599335",
  "name": "Jungpass",
  "lat": 46.1892834,
  "lon": 7.7356155,
  "elevation": 2990,
  "surfaceLabel": "",
  "trafFeriale": 3,
  "trafWeekend": 5,
  "trucks": "rari",
  "snapped": false,
  "nodeId": 5152599335
 },
 {
  "id": "osm-2025405753",
  "name": "Col des Ugousses",
  "lat": 44.6355568,
  "lon": 6.8863637,
  "elevation": 2988,
  "surfaceLabel": "",
  "trafFeriale": 3,
  "trafWeekend": 5,
  "trucks": "rari",
  "snapped": false,
  "nodeId": 2025405753
 },
 {
  "id": "osm-356236996",
  "name": "Col de la Galise / Colle Galisia",
  "lat": 45.4610135,
  "lon": 7.0981718,
  "elevation": 2987,
  "surfaceLabel": "",
  "trafFeriale": 3,
  "trafWeekend": 5,
  "trucks": "rari",
  "snapped": false,
  "nodeId": 356236996
 },
 {
  "id": "osm-2423779366",
  "name": "Col de Prafleuri",
  "lat": 46.0822567,
  "lon": 7.3638312,
  "elevation": 2987,
  "surfaceLabel": "",
  "trafFeriale": 3,
  "trafWeekend": 5,
  "trucks": "rari",
  "snapped": false,
  "nodeId": 2423779366
 },
 {
  "id": "osm-514114674",
  "name": "Platzerjöchl",
  "lat": 46.928179,
  "lon": 10.6613933,
  "elevation": 2985,
  "surfaceLabel": "",
  "trafFeriale": 3,
  "trafWeekend": 5,
  "trucks": "rari",
  "snapped": false,
  "nodeId": 514114674
 },